~VERSION INFORMATION
 VERS.                      2.00:        CWLS LOG ASCII STANDARD - VERSION 2.00
 WRAP.                        NO:        ONE LINE PER DEPTH STEP
~WELL INFORMATION
#MNEM.UNIT               DATA            INFORMATION
#----------          ------------        ------------------------------
 STRT.F                  32.0000:        START DEPTH
 STOP.F                9360.0000:        STOP DEPTH
 STEP.F                   0.5000:        STEP VALUE
 NULL.                 -999.2500:        NULL VALUE
 COMP. USGS/HUSKY N.P.R. OPS., I:        COMPANY  
 WELL.            J.W. DALTON #1:        WELL     
 FLD .                   WILDCAT:        FIELD    
 LOC .              14  18N   5W:        LOCATION   
 CNTY.               NORTH SLOPE:        COUNTY  
 STAT.                    ALASKA:        STATE   
 CTRY.                       USA:        COUNTRY 
 DATE.                   5/11/79:        LOG DATE 
 API .              502792000600:        UNIQUE WELL IDENTIFIER 
 OPER. USGS/HUSKY N.P.R. OPS., I:        OPERATOR  
 SRVC.             Dresser Atlas:        SERVICE COMPANY 
 UWI .              502792000600:        UNIQUE WELL ID 
 LAT .                    0.0000:        LATITUDE
 LON .                    0.0000:        LONGITUDE
 DIGS.          Center Line Data:        DIGITIZING COMPANY 
~CURVE INFORMATION      
#MNEM.UNIT            API CODE           CURVE DESCRIPTION
#---------          -------------        ------------------------------
 DEPT.F                         :        1  DEPTH
 SP  .MV                        :        2
 ILD .OHMM                      :        3
 ILM .OHMM                      :        4
 FR  .OHMM                      :        5
 RHOB.G/C3                      :        6
 DRHO.G/C3                      :        7
 GR  .GAPI                      :        8
 CALI.IN                        :        9
 NPHI.%                         :       10
 DT  .US/F                      :       11
~PARAMETER INFORMATION       
~OTHER INFORMATION
~A 
# ...
   6864.00000    -68.27970      4.74420      5.36320      4.80170      2.44500      0.14310     97.45550     15.31430     34.54160     73.47240
   6864.50000    -68.27970      4.73560      5.35550      4.80530      2.44940      0.14950     95.73370     15.41210     34.60590     73.39290
   6865.00000    -68.27970      4.72670      5.34770      4.80930      2.45100      0.15460     97.54590     15.50960     34.48060     73.58610
   6865.50000    -68.27970      4.71790      5.34000      4.81320      2.45300      0.15540     98.31920     15.64800     34.25290     74.44040
   6866.00000    -68.27970      4.70910      5.33230      4.81910      2.43830      0.13290     98.53670     15.45370     33.71660     75.44240
   6866.50000    -68.27970      4.70020      5.32460      4.82650      2.42180      0.12790     98.03940     15.13490     32.91470     75.66780
   6867.00000    -68.26730      4.69140      5.31690      4.81190      2.42180      0.13130     97.20860     15.10120     32.50800     74.44860
   6867.50000    -68.24100      4.68270      5.30920      4.78820      2.42400      0.13460     97.00860     15.19330     32.37880     73.23020
   6868.00000    -68.21470      4.67390      5.30150      4.76820      2.42960      0.14100     96.75640     15.31190     32.28830     73.47320
   6868.50000    -68.18830      4.66510      5.29390      4.74850      2.43890      0.14790     96.76400     15.51240     32.05660     74.07250
   6869.00000    -68.16200      4.65640      5.28620      4.72900      2.44400      0.15860     96.13430     15.58560     31.93680     74.43960
   6869.50000    -68.13570      4.64770      5.27860      4.70960      2.43800      0.14220     96.11360     15.20640     32.62530     74.77540
   6870.00000    -68.08590      4.63900      5.27810      4.69230      2.43650      0.12960     95.18130     15.02540     33.65760     74.72790
   6870.50000    -68.00270      4.63030      5.29830      4.68290      2.46830      0.17240     94.25550     14.95010     34.25790     74.08540
   6871.00000    -67.88690      4.62160      5.31870      4.68570      2.49930      0.19640     93.77490     14.94490     34.58810     72.52040
   6871.50000    -67.75410      4.61300      5.33910      4.70520      2.52380      0.19690     92.15760     14.85140     34.28140     69.71150
   6872.00000    -67.62130      4.60440      5.35950      4.82050      2.54830      0.19590     91.96350     14.82110     33.92140     66.62110
   6872.50000    -67.48850      4.59570      5.38010      4.97080      2.57280      0.19480     90.33630     14.98010     33.40600     67.56960
   6873.00000    -67.36360      4.58710      5.40070      5.09570      2.54080      0.17820     89.37740     14.98110     32.75330     69.84550
   6873.50000    -67.27290      4.57860      5.40590      5.12210      2.49550      0.16010     88.36600     15.07990     32.21080     74.11120
   6874.00000    -67.18210      4.57410      5.39910      4.98360      2.45020      0.14490     91.25950     15.07890     33.30410     79.12180
   6874.50000    -67.10080      4.58260      5.39240      4.85830      2.43210      0.13820     94.58620     14.66840     34.66610     79.47420
   6875.00000    -67.41410      4.59110      5.38570      4.83720      2.43430      0.13610     95.74350     14.56010     36.02430     76.62920
   6875.50000    -67.72750      4.59960      5.37900      4.82640      2.44250      0.14450     93.23350     14.47630     35.42010     74.75740
   6876.00000    -68.04080      4.60810      5.37230      4.83300      2.45070      0.15360     94.03920     14.47240     34.97050     75.06870
   6876.50000    -68.35420      4.61660      5.36560      4.83960      2.44280      0.14600     94.44310     14.46090     35.28190     75.40410
   6877.00000    -68.57870      4.62510      5.35900      4.84620      2.42780      0.11200     94.43050     14.44580     35.59330     74.92880
   6877.50000    -68.58680      4.63370      5.35230      4.86200      2.42480      0.10050     93.92620     14.43770     35.90470     74.34070
   6878.00000    -68.59490      4.64220      5.35830      4.90740      2.41850      0.10220     93.40800     14.43600     36.21610     74.31710
   6878.50000    -68.60310      4.65080      5.36970      4.95320      2.40570      0.10310     93.47860     14.45370     36.05820     74.66620
   6879.00000    -68.61120      4.65940      5.38110      4.97610      2.39500      0.10060     94.99400     14.47200     35.76960     75.03330
   6879.50000    -68.61930      4.66310      5.39260      4.97530      2.38480      0.09600     95.18350     14.48280     35.50860     74.68680
   6880.00000    -68.62740      4.66290      5.40410      4.97090      2.38150      0.10380     96.12850     14.48280     35.63770     73.90400
   6880.50000    -68.63550      4.66260      5.41560      4.96650      2.40840      0.12320     97.12330     14.48460     35.88350     73.04570
   6881.00000    -68.60080      4.66230      5.42710      4.96210      2.41610      0.14250     97.13020     14.48650     36.18210     72.31430
   6881.50000    -68.52940      4.66200      5.43860      4.91210      2.40840      0.14980     96.59710     14.49060     36.66540     72.76000
   6882.00000    -68.45800      4.66180      5.45020      4.85400      2.40480      0.14670     95.67390     14.49670     37.01520     74.74210
   6882.50000    -68.38660      4.66150      5.46180      4.83760      2.40630      0.14130     96.17000     14.47940     36.52290     77.03960
   6883.00000    -68.30420      4.66120      5.44710      4.83760      2.40470      0.13430     97.04970     14.45110     35.73350     75.96160
   6883.50000    -68.07910      4.66090      5.41730      4.83760      2.41610      0.14040     97.24130     14.46160     35.20910     74.34850
   6884.00000    -67.85400      4.66070      5.38770      4.83760      2.43120      0.15140     95.93430     14.49290     34.55350     73.31920
   6884.50000    -67.62890      4.66040      5.35830      4.83760      2.44310      0.16760     94.53390     14.40420     33.49890     72.26040
   6885.00000    -67.48540      4.66010      5.32900      4.83700      2.43890      0.18450     94.15160     14.36430     32.62480     72.98880
   6885.50000    -67.41460      4.65980      5.29990      4.83150      2.43810      0.20110     93.97030     14.34050     32.19120     75.51150
   6886.00000    -67.34390      4.65960      5.28660      4.82600      2.43970      0.21620     93.93770     14.33800     32.56250     76.63120
   6886.50000    -67.27320      4.65930      5.27780      4.82950      2.44100      0.23130     93.45800     14.34230     32.98440     76.27060
   6887.00000    -67.20500      4.65900      5.26910      4.83830      2.44120      0.24060     92.63780     14.35020     33.13250     75.62150
   6887.50000    -67.28250      4.65960      5.26040      4.84710      2.44030      0.24410     92.35280     14.31300     33.14440     74.56550
   6888.00000    -67.36000      4.66200      5.25170      4.86930      2.43020      0.24200     93.38900     14.28820     32.44580     74.24160
   6888.50000    -67.43750      4.66440      5.24300      4.90180      2.41020      0.23830     95.13520     14.25570     33.25320     75.05940
   6889.00000    -67.51490      4.66680      5.24170      4.93380      2.39010      0.21870     96.03880     14.21220     33.84910     75.95960
   6889.50000    -67.59240      4.66920      5.25700      4.94150      2.37010      0.19840     97.45750     14.16390     33.75680     76.20720
   6890.00000    -67.66990      4.67170      5.27230      4.95070      2.36600      0.17820     97.82550     14.15000     32.71110     76.40820
   6890.50000    -67.74740      4.67410      5.28770      4.95990      2.37780      0.18530     98.53210     14.12920     33.23710     76.48230
   6891.00000    -67.79860      4.67650      5.29600      4.94190      2.39610      0.20480     97.47880     14.25200     33.85750     76.37660
   6891.50000    -67.79020      4.67890      5.30030      4.92390      2.41540      0.22430     96.43610     14.68300     34.47780     76.02040
