~VERSION INFORMATION
 VERS.                      2.00:        CWLS LOG ASCII STANDARD - VERSION 2.00
 WRAP.                        NO:        ONE LINE PER DEPTH STEP
~WELL INFORMATION
#MNEM.UNIT               DATA            INFORMATION
#----------          ------------        ------------------------------
 STRT.F                  32.0000:        START DEPTH
 STOP.F                9360.0000:        STOP DEPTH
 STEP.F                   0.5000:        STEP VALUE
 NULL.                 -999.2500:        NULL VALUE
 COMP. USGS/HUSKY N.P.R. OPS., I:        COMPANY  
 WELL.            J.W. DALTON #1:        WELL     
 FLD .                   WILDCAT:        FIELD    
 LOC .              14  18N   5W:        LOCATION   
 CNTY.               NORTH SLOPE:        COUNTY  
 STAT.                    ALASKA:        STATE   
 CTRY.                       USA:        COUNTRY 
 DATE.                   5/11/79:        LOG DATE 
 API .              502792000600:        UNIQUE WELL IDENTIFIER 
 OPER. USGS/HUSKY N.P.R. OPS., I:        OPERATOR  
 SRVC.             Dresser Atlas:        SERVICE COMPANY 
 UWI .              502792000600:        UNIQUE WELL ID 
 LAT .                    0.0000:        LATITUDE
 LON .                    0.0000:        LONGITUDE
 DIGS.          Center Line Data:        DIGITIZING COMPANY 
~CURVE INFORMATION      
#MNEM.UNIT            API CODE           CURVE DESCRIPTION
#---------          -------------        ------------------------------
 DEPT.F                         :        1  DEPTH
 SP  .MV                        :        2
 ILD .OHMM                      :        3
 ILM .OHMM                      :        4
 FR  .OHMM                      :        5
 RHOB.G/C3                      :        6
 DRHO.G/C3                      :        7
 GR  .GAPI                      :        8
 CALI.IN                        :        9
 NPHI.%                         :       10
 DT  .US/F                      :       11
~PARAMETER INFORMATION       
~OTHER INFORMATION
~A 
# ...
   8096.00000    -97.15410     14.28080     22.32150     25.65960      2.45710     -0.03610     34.09130      8.72410     11.26740     66.70790
   8096.50000    -97.40930     14.25240     22.21740     26.99930      2.46910     -0.03920     34.34690      8.72410     11.10480     67.13100
   8097.00000    -97.55150     14.17790     22.00730     29.34070      2.48370     -0.03200     34.49110      8.72500     10.91360     67.78650
   8097.50000    -97.59040     13.83850     21.75050     31.37250      2.50470     -0.01950     34.93410      8.72660     10.82110     68.86540
   8098.00000    -97.59190     13.89380     21.55460     32.03510      2.49740     -0.00860     35.80570      8.72960     10.84810     69.70130
   8098.50000    -97.68660     13.93450     21.47130     28.21470      2.47510     -0.00840     35.52870      8.72990     10.84770     69.87130
   8099.00000    -97.81350     13.79810     21.31880     25.12160      2.45350     -0.00920     34.54590      8.72820     10.83720     69.92230
   8099.50000    -98.08820     13.56100     21.13530     24.06390      2.44540     -0.01060     33.74610      8.72650     10.87020     69.86150
   8100.00000    -98.28390     13.32800     20.95330     23.15800      2.45670     -0.01370     34.55260      8.72570     10.96770     69.44590
   8100.50000    -98.47950     13.20580     20.77560     22.55730      2.45480     -0.01680     34.09480      8.72340     11.06520     68.97690
   8101.00000    -98.51770     13.08770     20.28560     22.39920      2.43970     -0.01980     34.23550      8.72060     11.16270     68.57290
   8101.50000    -98.39330     12.86300     20.00890     22.06230      2.43750     -0.02200     35.29710      8.72140     11.30330     67.92140
   8102.00000    -98.31450     12.80240     19.73600     22.07270      2.43960     -0.02480     34.79020      8.73120     11.47310     67.36160
   8102.50000    -98.36730     12.73010     19.62440     22.42160      2.43530     -0.02830     33.46020      8.73590     11.52130     66.76070
   8103.00000    -98.31720     12.65830     19.55450     23.00530      2.42780     -0.02720     33.17410      8.73930     11.37720     66.25890
   8103.50000    -98.36330     12.61800     19.43520     23.65470      2.44630     -0.02370     32.45170      8.74410     11.12580     66.33970
   8104.00000    -98.62150     12.60200     19.37530     24.21220      2.46900     -0.01250     33.05130      8.75250     10.96400     66.81960
   8104.50000    -99.05210     12.58620     19.32090     24.74620      2.49110     -0.00790     33.08100      8.75840     10.97330     67.19680
   8105.00000    -99.48260     12.57040     19.26670     25.47060      2.50100     -0.00400     33.00870      8.76210     11.07630     67.30920
   8105.50000    -99.55690     12.61990     19.21260     26.03090      2.50180     -0.00020     33.61650      8.76620     11.16650     67.41990
   8106.00000    -99.62880     12.67150     19.16910     26.57820      2.51450      0.00250     33.39100      8.77070     11.25660     67.52050
   8106.50000    -99.70060     12.73060     19.30880     27.27520      2.52100      0.00180     32.64690      8.77470     11.34310     67.56780
   8107.00000    -99.77250     12.83640     19.44960     27.10080      2.49460     -0.00660     32.03510      8.77820     11.37130     67.48960
   8107.50000    -99.84430     13.07210     19.59140     24.53650      2.46820     -0.02050     31.83640      8.78240     11.40820     67.17310
   8108.00000    -99.83510     13.23620     19.73430     23.66250      2.44210     -0.03030     32.90120      8.78770     11.55080     66.86790
   8108.50000    -99.79980     13.32380     19.87810     25.32000      2.46410     -0.02360     34.84110      8.79170     11.79940     67.01070
   8109.00000    -99.76460     13.43050     19.98490     26.62970      2.48960     -0.01700     35.62960      8.79520     12.03940     67.62090
   8109.50000    -99.72930     13.53800     19.96730     27.97890      2.49470     -0.01940     36.27990      8.80090     11.98640     68.32390
   8110.00000    -99.69400     13.57950     19.92500     28.27530      2.44970     -0.02530     36.00670      8.81160     11.46100     68.79260
   8110.50000    -99.65870     13.55230     19.71380     26.83480      2.42640     -0.03030     35.69890      8.81500     11.26540     69.28380
   8111.00000    -99.55760     13.38460     19.50490     23.61220      2.43180     -0.03310     35.88170      8.81460     11.31690     69.54540
   8111.50000    -99.44390     13.23480     19.33610     21.38630      2.44260     -0.02630     37.33180      8.81670     11.49830     69.57560
   8112.00000    -99.33020     13.07230     19.17620     20.86360      2.44810     -0.02720     37.17560      8.82100     11.72610     69.67070
   8112.50000    -99.19850     12.72550     19.01760     20.73970      2.44980     -0.02880     36.48470      8.82770     11.90310     70.02550
   8113.00000    -99.03790     12.41200     18.76870     20.68020      2.45840     -0.03050     35.71060      8.83460     11.99520     70.62980
   8113.50000    -98.70970     12.06950     18.51530     20.66290      2.47030     -0.03170     35.36710      8.84360     11.88980     71.11120
   8114.00000    -98.50060     11.74240     18.25050     20.73140      2.48640     -0.02640     36.13860      8.85530     11.85450     71.27310
   8114.50000    -98.00760     11.45560     17.93590     20.85600      2.50610     -0.02860     37.62220      8.86700     11.98230     71.40150
   8115.00000    -97.49440     11.06900     17.50620     21.13110      2.51650     -0.03320     40.21450      8.87870     12.11020     71.45870
   8115.50000    -96.39570     10.79760     17.12390     19.85730      2.53440     -0.02370     41.33220      8.88520     12.47600     71.44560
   8116.00000    -95.61230     10.53270     16.74990     16.45090      2.57060     -0.01860     44.75610      8.91080     12.59680     71.37020
   8116.50000    -95.14970     10.27440     16.38410     16.51640      2.58590     -0.01820     46.75600      8.90010     12.79190     71.14830
   8117.00000    -95.44100     10.02240     16.02620     17.25070      2.55580     -0.01740     42.95390      8.88650     13.03420     70.80120
   8117.50000    -96.34710      9.88050     15.72610     18.06770      2.52170     -0.01480     40.80010      8.88600     13.28080     70.47370
   8118.00000    -97.37020      9.85750     15.52710     18.24460      2.51850     -0.01480     40.40180      8.89760     13.41860     70.12120
   8118.50000    -97.85300      9.84640     15.39940     18.21990      2.50870     -0.01940     39.66860      8.89530     13.18280     69.85760
   8119.00000    -98.13900      9.83530     15.43650     18.50250      2.49180     -0.02840     38.50230      8.89200     12.94710     70.03650
   8119.50000    -98.36560      9.79830     15.51400     18.95130      2.47480     -0.03830     36.46810      8.89490     12.85180     70.34870
   8120.00000    -98.55560      9.65940     15.59180     19.38500      2.47050     -0.02410     36.25650      8.90530     12.99880     71.14780
   8120.50000    -98.79840      9.51240     15.67010     19.79500      2.49600     -0.00580     36.06190      8.89940     13.13180     72.38410
   8121.00000    -99.04110      9.38250     15.58960     20.28640      2.50690     -0.01040     38.33140      8.89130     13.28050     73.65730
   8121.50000    -98.95440      9.25430     15.46640     20.92040      2.50070     -0.01500     39.90030      8.89670     13.46180     74.09360
   8122.00000    -98.60640      9.13640     15.29210     19.62880      2.45920     -0.02440     38.68370      8.91390     13.53420     74.40790
   8122.50000    -98.25830      9.04930     14.96330     16.26450      2.41780     -0.03560     36.27250      8.91830     13.78000     74.59180
   8123.00000    -97.93440      8.94420     14.64170     14.66490      2.37640     -0.04360     33.89070      8.91670     14.04750     74.42730
   8123.50000    -97.68730      8.80490     14.32690     14.63450      2.37430     -0.04590     34.99530      8.90660     14.52250     74.16670
