~VERSION INFORMATION
 VERS.                      2.00:        CWLS LOG ASCII STANDARD - VERSION 2.00
 WRAP.                        NO:        ONE LINE PER DEPTH STEP
~WELL INFORMATION
#MNEM.UNIT               DATA            INFORMATION
#----------          ------------        ------------------------------
 STRT.F                  32.0000:        START DEPTH
 STOP.F                9360.0000:        STOP DEPTH
 STEP.F                   0.5000:        STEP VALUE
 NULL.                 -999.2500:        NULL VALUE
 COMP. USGS/HUSKY N.P.R. OPS., I:        COMPANY  
 WELL.            J.W. DALTON #1:        WELL     
 FLD .                   WILDCAT:        FIELD    
 LOC .              14  18N   5W:        LOCATION   
 CNTY.               NORTH SLOPE:        COUNTY  
 STAT.                    ALASKA:        STATE   
 CTRY.                       USA:        COUNTRY 
 DATE.                   5/11/79:        LOG DATE 
 API .              502792000600:        UNIQUE WELL IDENTIFIER 
 OPER. USGS/HUSKY N.P.R. OPS., I:        OPERATOR  
 SRVC.             Dresser Atlas:        SERVICE COMPANY 
 UWI .              502792000600:        UNIQUE WELL ID 
 LAT .                    0.0000:        LATITUDE
 LON .                    0.0000:        LONGITUDE
 DIGS.          Center Line Data:        DIGITIZING COMPANY 
~CURVE INFORMATION      
#MNEM.UNIT            API CODE           CURVE DESCRIPTION
#---------          -------------        ------------------------------
 DEPT.F                         :        1  DEPTH
 SP  .MV                        :        2
 ILD .OHMM                      :        3
 ILM .OHMM                      :        4
 FR  .OHMM                      :        5
 RHOB.G/C3                      :        6
 DRHO.G/C3                      :        7
 GR  .GAPI                      :        8
 CALI.IN                        :        9
 NPHI.%                         :       10
 DT  .US/F                      :       11
~PARAMETER INFORMATION       
~OTHER INFORMATION
~A 
# ...
   1348.00000    -40.38080      3.02720      2.68670      2.99740   -999.00000   -999.00000     92.90690   -999.00000   -999.00000    146.79630
   1348.50000    -40.01900      2.96270      2.61160      2.98900   -999.00000   -999.00000     92.34320   -999.00000   -999.00000    148.54970
   1349.00000    -40.43230      2.93200      2.55960      2.98050   -999.00000   -999.00000     92.37970   -999.00000   -999.00000    146.25400
   1349.50000    -40.72190      2.91650      2.52870      2.97670   -999.00000   -999.00000     92.47060   -999.00000   -999.00000    144.49010
   1350.00000    -41.38240      2.90100      2.49980      2.98770   -999.00000   -999.00000     93.32850   -999.00000   -999.00000    144.07210
   1350.50000    -41.57890      2.89500      2.49520      2.99920   -999.00000   -999.00000     94.33040   -999.00000   -999.00000    146.07210
   1351.00000    -41.72060      2.89840      2.49110      2.99390   -999.00000   -999.00000     94.11910   -999.00000   -999.00000    151.37180
   1351.50000    -42.02760      2.90030      2.55370      2.98350   -999.00000   -999.00000     92.94590   -999.00000   -999.00000    153.26520
   1352.00000    -43.23930      2.86560      2.64630      2.97410   -999.00000   -999.00000     91.64520   -999.00000   -999.00000    152.87230
   1352.50000    -43.93920      2.78860      2.64670      2.99650   -999.00000   -999.00000     91.23910   -999.00000   -999.00000    153.29359
   1353.00000    -44.51800      2.68230      2.61930      3.00020   -999.00000   -999.00000     91.37650   -999.00000   -999.00000    153.74989
   1353.50000    -45.82440      2.55560      2.48770      2.82670   -999.00000   -999.00000     91.14900   -999.00000   -999.00000    154.70660
   1354.00000    -48.00140      2.40160      2.33860      2.70250   -999.00000   -999.00000     90.14180   -999.00000   -999.00000    155.46930
   1354.50000    -51.48980      2.25690      2.19850      2.62570   -999.00000   -999.00000     89.61990   -999.00000   -999.00000    155.62920
   1355.00000    -54.24630      2.12350      2.06680      2.59150   -999.00000   -999.00000     90.34840   -999.00000   -999.00000    150.15131
   1355.50000    -56.17680      2.05010      1.94290      2.56470   -999.00000   -999.00000     91.19300   -999.00000   -999.00000    139.82310
   1356.00000    -57.76990      1.98600      1.83350      2.56110   -999.00000   -999.00000     92.35870   -999.00000   -999.00000    135.90340
   1356.50000    -58.78660      1.94140      1.81960      2.57520   -999.00000   -999.00000     93.16160   -999.00000   -999.00000    134.72231
   1357.00000    -59.63200      1.92540      1.80580      2.58360   -999.00000   -999.00000     92.82910   -999.00000   -999.00000    138.85831
   1357.50000    -59.80720      1.92380      1.80320      2.59040   -999.00000   -999.00000     91.86500   -999.00000   -999.00000    148.73511
   1358.00000    -57.95190      1.92220      1.80750      2.59140   -999.00000   -999.00000     89.85310   -999.00000   -999.00000    153.06100
   1358.50000    -55.83510      1.92290      1.81180      2.58570   -999.00000   -999.00000     87.59770   -999.00000   -999.00000    153.31580
   1359.00000    -54.57380      1.93020      1.81610      2.56230   -999.00000   -999.00000     85.12850   -999.00000   -999.00000    153.79469
   1359.50000    -53.83570      1.93760      1.82040      2.52500   -999.00000   -999.00000     82.87790   -999.00000   -999.00000    154.20239
   1360.00000    -53.72570      1.94960      1.82470      2.53240   -999.00000   -999.00000     80.43220   -999.00000   -999.00000    154.38721
   1360.50000    -53.59580      1.96160      1.82910      2.55420   -999.00000   -999.00000     79.84200   -999.00000   -999.00000    154.56129
   1361.00000    -53.30450      1.97370      1.83340      2.54430   -999.00000   -999.00000     79.84950   -999.00000   -999.00000    155.56380
   1361.50000    -53.21260      1.98590      1.83780      2.51940   -999.00000   -999.00000     80.24500   -999.00000   -999.00000    158.36490
   1362.00000    -54.19250      1.99810      1.84500      2.49800   -999.00000   -999.00000     81.62000   -999.00000   -999.00000    161.42039
   1362.50000    -56.03980      2.01050      1.85790      2.48760   -999.00000   -999.00000     82.94280   -999.00000   -999.00000    163.64980
   1363.00000    -57.30920      2.02290      1.87100      2.49720   -999.00000   -999.00000     83.41430   -999.00000   -999.00000    165.39059
   1363.50000    -58.63900      2.03530      1.88410      2.54610   -999.00000   -999.00000     84.47550   -999.00000   -999.00000    164.02589
   1364.00000    -58.76090      2.03770      1.88500      2.60700   -999.00000   -999.00000     85.49170   -999.00000   -999.00000    160.14281
   1364.50000    -55.55050      2.03300      1.88580      2.58650   -999.00000   -999.00000     86.36230   -999.00000   -999.00000    161.46519
   1365.00000    -51.08160      2.02820      1.88670      2.48290   -999.00000   -999.00000     87.45900   -999.00000   -999.00000    164.21049
   1365.50000    -49.91250      2.01940      1.87980      2.41730   -999.00000   -999.00000     88.59090   -999.00000   -999.00000    169.98109
   1366.00000    -52.73410      1.98960      1.86530      2.46270   -999.00000   -999.00000     88.64360   -999.00000   -999.00000    174.39011
   1366.50000    -58.24070      1.95180      1.85100      2.52330   -999.00000   -999.00000     88.00700   -999.00000   -999.00000    167.50780
   1367.00000    -63.31360      1.91640      1.82600      2.52290   -999.00000   -999.00000     87.43050   -999.00000   -999.00000    164.14470
   1367.50000    -66.60500      1.83860      1.77990      2.54950   -999.00000   -999.00000     87.76830   -999.00000   -999.00000    158.15190
   1368.00000    -69.65110      1.77810      1.73480      2.57510   -999.00000   -999.00000     87.85030   -999.00000   -999.00000    158.15790
   1368.50000    -71.95130      1.71960      1.69090      2.57620   -999.00000   -999.00000     88.02330   -999.00000   -999.00000    158.42470
   1369.00000    -73.97630      1.66310      1.64820      2.55480   -999.00000   -999.00000     87.60630   -999.00000   -999.00000    158.46140
   1369.50000    -75.19180      1.60830      1.60650      2.53540   -999.00000   -999.00000     86.86680   -999.00000   -999.00000    158.24719
   1370.00000    -75.95410      1.58970      1.56640      2.51790   -999.00000   -999.00000     84.45830   -999.00000   -999.00000    158.02200
   1370.50000    -76.59200      1.57840      1.53810      2.50230   -999.00000   -999.00000     82.18510   -999.00000   -999.00000    157.90891
   1371.00000    -77.11600      1.56730      1.51040      2.49260   -999.00000   -999.00000     81.38710   -999.00000   -999.00000    158.13910
   1371.50000    -77.33500      1.55700      1.49330      2.47420   -999.00000   -999.00000     80.78800   -999.00000   -999.00000    158.06920
   1372.00000    -77.02030      1.55440      1.48860      2.43870   -999.00000   -999.00000     79.71000   -999.00000   -999.00000    157.82001
   1372.50000    -76.65050      1.55190      1.48490      2.39420   -999.00000   -999.00000     78.25070   -999.00000   -999.00000    157.82381
   1373.00000    -76.08280      1.54930      1.48290      2.36800   -999.00000   -999.00000     76.42840   -999.00000   -999.00000    157.83980
   1373.50000    -75.93890      1.54670      1.48090      2.35910   -999.00000   -999.00000     74.82520   -999.00000   -999.00000    157.97929
   1374.00000    -76.14840      1.54480      1.47890      2.37450   -999.00000   -999.00000     73.60280   -999.00000   -999.00000    157.94110
   1374.50000    -76.17030      1.54380      1.47690      2.40300   -999.00000   -999.00000     72.86380   -999.00000   -999.00000    157.85300
   1375.00000    -75.60430      1.54280      1.47490      2.43180   -999.00000   -999.00000     73.13930   -999.00000   -999.00000    158.03680
   1375.50000    -75.14970      1.54170      1.47510      2.43440   -999.00000   -999.00000     73.29200   -999.00000   -999.00000    157.98540
