~VERSION INFORMATION
 VERS.                      2.00:        CWLS LOG ASCII STANDARD - VERSION 2.00
 WRAP.                        NO:        ONE LINE PER DEPTH STEP
~WELL INFORMATION
#MNEM.UNIT               DATA            INFORMATION
#----------          ------------        ------------------------------
 STRT.F                  32.0000:        START DEPTH
 STOP.F                9360.0000:        STOP DEPTH
 STEP.F                   0.5000:        STEP VALUE
 NULL.                 -999.2500:        NULL VALUE
 COMP. USGS/HUSKY N.P.R. OPS., I:        COMPANY  
 WELL.            J.W. DALTON #1:        WELL     
 FLD .                   WILDCAT:        FIELD    
 LOC .              14  18N   5W:        LOCATION   
 CNTY.               NORTH SLOPE:        COUNTY  
 STAT.                    ALASKA:        STATE   
 CTRY.                       USA:        COUNTRY 
 DATE.                   5/11/79:        LOG DATE 
 API .              502792000600:        UNIQUE WELL IDENTIFIER 
 OPER. USGS/HUSKY N.P.R. OPS., I:        OPERATOR  
 SRVC.             Dresser Atlas:        SERVICE COMPANY 
 UWI .              502792000600:        UNIQUE WELL ID 
 LAT .                    0.0000:        LATITUDE
 LON .                    0.0000:        LONGITUDE
 DIGS.          Center Line Data:        DIGITIZING COMPANY 
~CURVE INFORMATION      
#MNEM.UNIT            API CODE           CURVE DESCRIPTION
#---------          -------------        ------------------------------
 DEPT.F                         :        1  DEPTH
 SP  .MV                        :        2
 ILD .OHMM                      :        3
 ILM .OHMM                      :        4
 FR  .OHMM                      :        5
 RHOB.G/C3                      :        6
 DRHO.G/C3                      :        7
 GR  .GAPI                      :        8
 CALI.IN                        :        9
 NPHI.%                         :       10
 DT  .US/F                      :       11
~PARAMETER INFORMATION       
~OTHER INFORMATION
~A 
# ...
   5632.00000    -88.09370      3.89940      4.23550      4.16620      2.34130      0.16050     92.54590     14.21300     38.01350     90.21450
   5632.50000    -88.12450      3.89180      4.22730      4.09360      2.33120      0.17500     90.63160     14.20490     37.40520     89.87790
   5633.00000    -88.15530      3.88420      4.21900      4.18990      2.33980      0.19100     90.38230     14.20210     36.82980     89.07690
   5633.50000    -88.18770      3.87660      4.21080      4.27570      2.34560      0.18410     91.04100     14.20240     36.36930     87.85390
   5634.00000    -88.22540      3.86570      4.20180      4.33160      2.35230      0.17540     91.28300     14.20900     35.97230     87.91580
   5634.50000    -88.28710      3.84190      4.17590      4.38120      2.35840      0.16720     90.86390     14.21180     35.89920     89.16360
   5635.00000    -88.35030      3.81830      4.15020      4.37030      2.35780      0.15960     89.83930     14.21150     35.89430     90.41260
   5635.50000    -88.41340      3.79480      4.12470      4.25750      2.35030      0.15200     89.25210     14.21720     35.72540     90.01800
   5636.00000    -88.47660      3.77140      4.09930      4.08350      2.33660      0.14440     88.98670     14.22290     37.54280     89.03210
   5636.50000    -88.53970      3.74820      4.07410      3.98950      2.32270      0.13680     89.71810     14.22860     38.32400     88.20440
   5637.00000    -88.56380      3.72510      4.04900      4.02360      2.32580      0.13050     90.34070     14.23430     38.97360     88.45170
   5637.50000    -88.58410      3.71700      4.03750      4.09270      2.33190      0.12530     90.89900     14.24010     39.37360     88.88370
   5638.00000    -88.60440      3.71190      4.03190      4.12460      2.33140      0.12010     91.25880     14.24580     39.07500     89.22630
   5638.50000    -88.62470      3.70670      4.02620      4.11530      2.32680      0.11920     91.35860     14.25150     38.61970     89.45360
   5639.00000    -88.67190      3.70150      4.02060      4.12900      2.31890      0.12610     91.03410     14.25520     38.14410     89.66730
   5639.50000    -88.72330      3.69630      4.01500      4.18760      2.32360      0.13470     89.89470     14.26390     37.91940     89.56710
   5640.00000    -88.77480      3.70010      4.01940      4.14800      2.34080      0.14350     86.51820     14.30560     38.01230     89.34350
   5640.50000    -88.82620      3.70750      4.02730      4.10560      2.34640      0.14800     87.32570     14.30010     38.10510     89.15080
   5641.00000    -88.69550      3.71480      4.03530      4.10560      2.34450      0.14960     87.01410     14.28600     38.13660     89.03370
   5641.50000    -88.48030      3.72220      4.04330      4.16370      2.34120      0.15020     87.40670     14.27960     37.43810     89.05120
   5642.00000    -88.49340      3.72950      4.05130      4.15630      2.34400      0.15080     89.16410     14.29340     36.97790     89.49680
   5642.50000    -88.47580      3.73690      4.05930      4.14340      2.35390      0.15360     91.15160     14.29550     36.45250     90.50750
   5643.00000    -88.41430      3.74430      4.06740      4.12330      2.36260      0.15750     90.20850     14.28450     36.27740     91.21380
   5643.50000    -88.36280      3.75170      4.07540      4.17650      2.36660      0.16130     88.22910     14.27990     36.79490     90.96720
   5644.00000    -88.33880      3.75920      4.08350      4.18500      2.38130      0.16510     87.39500     14.28360     35.47600     90.34890
   5644.50000    -88.45120      3.76660      4.09160      4.17490      2.39760      0.16890     88.28430     14.28730     34.81750     89.55040
   5645.00000    -88.73850      3.77410      4.09970      4.15680      2.38780      0.16770     90.57480     14.29100     34.28200     88.49000
   5645.50000    -88.60640      3.77300      4.09820      4.16670      2.38340      0.16460     90.79440     14.29480     34.60520     88.08640
   5646.00000    -88.26190      3.77080      4.09580      4.25360      2.38330      0.15690     90.45070     14.29850     35.89370     89.19460
   5646.50000    -88.13330      3.76860      4.09340      4.26430      2.38350      0.14970     89.54820     14.30220     36.25110     90.75880
   5647.00000    -88.29960      3.76650      4.09110      4.20530      2.38310      0.14960     88.68310     14.30330     36.38140     91.34810
   5647.50000    -88.43070      3.76430      4.08870      4.13440      2.37290      0.14930     88.19410     14.30330     35.93050     91.30620
   5648.00000    -88.31070      3.76210      4.08640      4.08490      2.35800      0.15470     88.51680     14.30320     35.25550     91.19490
   5648.50000    -88.21930      3.75370      4.07780      4.09280      2.34000      0.16210     90.48000     14.30320     34.96020     91.07340
   5649.00000    -88.16200      3.74240      4.06560      4.15540      2.34010      0.16170     91.65520     14.30310     34.77790     90.87790
   5649.50000    -88.13040      3.73120      4.05330      4.19120      2.35090      0.16820     91.83970     14.30310     34.96350     90.66980
   5650.00000    -88.15540      3.72000      4.04120      4.12280      2.35490      0.17510     92.19950     14.30300     35.12090     90.47190
   5650.50000    -88.18050      3.70880      4.02900      4.08950      2.34790      0.18080     93.08040     14.30300     35.27820     90.30820
   5651.00000    -88.20550      3.69770      4.01690      4.19590      2.34110      0.17960     93.55360     14.30230     35.43560     90.31720
   5651.50000    -88.16350      3.68660      4.00490      4.30560      2.35170      0.17830     92.60830     14.29210     35.89400     90.51100
   5652.00000    -88.03870      3.67550      3.99280      4.21220      2.36100      0.17710     89.51980     14.28190     35.76880     90.56940
   5652.50000    -88.06960      3.66450      3.98080      4.11840      2.34310      0.17580     89.68130     14.27170     35.40200     90.37740
   5653.00000    -88.14380      3.65350      3.96890      4.05150      2.32540      0.17450     91.44320     14.26150     35.02340     90.03570
   5653.50000    -88.10570      3.64250      3.95700      4.01790      2.31920      0.17310     92.72940     14.24540     34.70220     89.69350
   5654.00000    -87.80420      3.63160      3.94510      4.02990      2.33010      0.17170     91.34890     14.25150     34.38790     89.19620
   5654.50000    -87.57530      3.62040      3.93300      4.02430      2.34070      0.17030     91.70100     14.25760     34.37560     88.85420
   5655.00000    -87.45710      3.61580      3.92880      4.06400      2.34410      0.16880     90.24150     14.26370     34.58840     88.94550
   5655.50000    -87.65170      3.63010      3.94350      4.13690      2.34650      0.16740     89.80370     14.26980     35.39990     89.22480
   5656.00000    -87.73030      3.64350      3.95810      4.20590      2.36380      0.16570     89.59650     14.27590     37.06560     89.98810
   5656.50000    -88.03090      3.65700      3.97270      4.26220      2.37350      0.16370     89.37160     14.28200     37.61770     90.97960
   5657.00000    -88.68510      3.67050      3.98740      4.25880      2.37060      0.16130     89.44940     14.28810     37.57120     91.15070
   5657.50000    -88.61710      3.68410      4.00220      4.23310      2.35530      0.15450     89.63940     14.29430     37.40280     90.02160
   5658.00000    -88.54920      3.69610      4.01490      4.19620      2.33990      0.14780     88.72110     14.30040     36.92290     88.83210
   5658.50000    -88.48120      3.70710      4.02680      4.15440      2.32480      0.14130     89.12160     14.30650     36.77190     88.72780
   5659.00000    -88.41320      3.71810      4.03880      4.18910      2.31970      0.13560     90.94280     14.31260     36.84850     89.63680
   5659.50000    -88.32730      3.72280      4.04780      4.24300      2.31500      0.12990     91.85830     14.31870     36.95270     90.47370
