~VERSION INFORMATION
 VERS.                      2.00:        CWLS LOG ASCII STANDARD - VERSION 2.00
 WRAP.                        NO:        ONE LINE PER DEPTH STEP
~WELL INFORMATION
#MNEM.UNIT               DATA            INFORMATION
#----------          ------------        ------------------------------
 STRT.F                  32.0000:        START DEPTH
 STOP.F                9360.0000:        STOP DEPTH
 STEP.F                   0.5000:        STEP VALUE
 NULL.                 -999.2500:        NULL VALUE
 COMP. USGS/HUSKY N.P.R. OPS., I:        COMPANY  
 WELL.            J.W. DALTON #1:        WELL     
 FLD .                   WILDCAT:        FIELD    
 LOC .              14  18N   5W:        LOCATION   
 CNTY.               NORTH SLOPE:        COUNTY  
 STAT.                    ALASKA:        STATE   
 CTRY.                       USA:        COUNTRY 
 DATE.                   5/11/79:        LOG DATE 
 API .              502792000600:        UNIQUE WELL IDENTIFIER 
 OPER. USGS/HUSKY N.P.R. OPS., I:        OPERATOR  
 SRVC.             Dresser Atlas:        SERVICE COMPANY 
 UWI .              502792000600:        UNIQUE WELL ID 
 LAT .                    0.0000:        LATITUDE
 LON .                    0.0000:        LONGITUDE
 DIGS.          Center Line Data:        DIGITIZING COMPANY 
~CURVE INFORMATION      
#MNEM.UNIT            API CODE           CURVE DESCRIPTION
#---------          -------------        ------------------------------
 DEPT.F                         :        1  DEPTH
 SP  .MV                        :        2
 ILD .OHMM                      :        3
 ILM .OHMM                      :        4
 FR  .OHMM                      :        5
 RHOB.G/C3                      :        6
 DRHO.G/C3                      :        7
 GR  .GAPI                      :        8
 CALI.IN                        :        9
 NPHI.%                         :       10
 DT  .US/F                      :       11
~PARAMETER INFORMATION       
~OTHER INFORMATION
~A 
# ...
   3196.00000    -40.82010      3.03310      3.22240      3.04410      2.20130      0.11990     88.99200     15.38770     39.43700    114.39630
   3196.50000    -40.46880      3.00720      3.22730      3.03270      2.20800      0.13620     89.70770     15.26420     40.12160    114.10870
   3197.00000    -40.20740      2.94070      3.19560      3.03400      2.22240      0.14390     88.45230     15.22900     40.01790    118.62910
   3197.50000    -39.98380      2.78910      3.11940      3.10580      2.24340      0.17360     88.44440     14.98200     39.59510    124.34280
   3198.00000    -39.99170      2.57980      2.95870      3.24920      2.19950      0.14410     86.70820     14.81280     39.79380    125.15520
   3198.50000    -39.99960      2.38260      2.77010      3.35130      2.15360      0.13550     85.44450     14.70390     39.86590    123.53780
   3199.00000    -40.00760      2.13020      2.50350      2.98250      2.15830      0.13400     86.13340     14.64750     39.81900    122.55730
   3199.50000    -40.06330      1.92750      2.24830      2.63890      2.15620      0.12510     85.90560     14.45080     39.89250    122.54130
   3200.00000    -40.16200      1.74780      2.01900      2.53660      2.13820      0.12780     87.15740     14.23960     40.07510    121.53110
   3200.50000    -40.05510      1.58330      1.81080      2.54560      2.12520      0.14860     88.07760     14.19500     40.70060    119.91460
   3201.00000    -39.58050      1.45800      1.63210      2.54610      2.10410      0.16500     87.65450     14.24210     41.42080    116.26720
   3201.50000    -39.01980      1.47610      1.67040      2.53300      2.14820      0.18760     89.37250     14.26140     41.41130    113.04410
   3202.00000    -38.66520      1.52410      1.88590      2.44980      2.22560      0.18530     88.73030     14.25790     40.40910    110.68040
   3202.50000    -38.62580      1.58280      2.07000      2.41830      2.20080      0.14440     87.45780     14.25820     39.55420    108.34630
   3203.00000    -38.47730      1.68840      2.22520      2.64370      2.16180      0.11250     83.72900     14.26130     38.82120    109.52200
   3203.50000    -38.35670      1.84290      2.49330      3.21730      2.16420      0.09510     84.05430     14.27140     39.37200    112.98430
   3204.00000    -38.37780      2.16890      2.81170      3.56630      2.19170      0.04570     84.36900     14.29850     39.89550    116.96280
   3204.50000    -38.43630      2.52340      3.09510      3.54030      2.23850      0.05960     84.98050     14.35500     38.88070    119.15990
   3205.00000    -38.52870      2.84750      3.30760      3.46220      2.27590      0.07360     86.24420     14.42550     38.32880    122.13100
   3205.50000    -38.06470      3.01220      3.32780      3.41720      2.27450      0.07460     86.42290     14.53830     38.60770    123.44490
   3206.00000    -37.85940      3.03460      3.31250      3.36260      2.25610      0.07020     87.44320     14.75820     38.74170    123.99140
   3206.50000    -38.06310      3.03460      3.27190      3.29860      2.24340      0.06580     87.33030     14.95340     38.87430    123.70770
   3207.00000    -38.75750      3.03210      3.22600      3.23300      2.22160      0.06140     86.72770     14.93050     39.00620    121.59530
   3207.50000    -39.32700      3.02770      3.18080      3.17650      2.20680      0.06010     87.06550     14.90210     39.27440    119.11720
   3208.00000    -39.50880      3.01300      3.13620      3.12990      2.19240      0.06070     88.06490     14.96360     39.51090    119.34100
   3208.50000    -39.52220      2.98400      3.09320      3.09630      2.20200      0.06360     87.25560     15.03270     39.80680    120.63280
   3209.00000    -39.44070      2.94320      3.04950      3.17790      2.20900      0.07160     86.08910     15.10520     40.15630    121.57460
   3209.50000    -39.18340      2.90290      3.00620      3.33290      2.21770      0.08310     88.12520     15.14910     40.32470    121.92810
   3210.00000    -39.22720      2.86320      2.96340      3.22300      2.24880      0.09950     91.50700     15.17250     39.08980    122.29960
   3210.50000    -39.49770      2.82260      2.92130      3.05360      2.27100      0.11450     94.56620     15.23590     38.55660    122.57460
   3211.00000    -39.72290      2.77910      2.87970      2.96810      2.25250      0.11570     93.65660     15.30310     38.85040    122.98470
   3211.50000    -40.07240      2.73390      2.83880      2.99660      2.22570      0.10870     91.63590     15.37030     38.56870    123.71700
   3212.00000    -40.82310      2.68690      2.82710      3.08380      2.22570      0.12060     91.48670     15.46410     38.24320    124.73390
   3212.50000    -40.17750      2.64070      2.81960      3.08860      2.23130      0.13300     91.74380     15.52100     39.08290    125.20800
   3213.00000    -39.96260      2.59530      2.81200      3.05510      2.22930      0.14540     91.72200     15.52700     39.79720    123.43500
   3213.50000    -40.51710      2.57820      2.81930      2.94890      2.23470      0.15780     91.21780     15.20450     39.02850    119.97580
   3214.00000    -41.06590      2.58160      2.85160      2.89790      2.24280      0.16350     90.24960     14.84600     38.98930    114.78160
   3214.50000    -41.41550      2.59450      2.93620      2.88180      2.23740      0.15980     89.53000     14.57860     38.92930    107.08600
   3215.00000    -41.73580      2.61110      3.07250      2.87340      2.22550      0.14850     90.09860     14.48440     38.83420     98.66990
   3215.50000    -42.63080      2.62780      3.21520      2.88580      2.20560      0.13710     90.10780     14.41650     37.82070     96.97240
   3216.00000    -45.38940      2.65700      3.37020      2.98280      2.17760      0.13770     87.89070     14.29710     36.99790     95.34030
   3216.50000    -49.62550      2.69630      3.52090      3.40230      2.18080      0.14190     88.66980     14.14210     36.91370     94.42020
   3217.00000    -54.26310      2.73630      3.61220      4.28880      2.22120      0.14240     87.90860     13.99990     36.74330     94.34090
   3217.50000    -59.12340      2.78850      3.68720      5.04390      2.27240      0.11320     83.27490     13.76820     36.46740     94.23950
   3218.00000    -62.29320      2.89680      3.74880      5.12130      2.28410      0.06930     74.75520     13.39270     35.18150     93.92760
   3218.50000    -64.37540      3.01770      3.96790      4.70500      2.28310      0.04270     67.01250     13.27550     34.54340     93.36820
   3219.00000    -64.89420      3.11060      4.03230      4.65700      2.30940      0.04380     63.36520     13.32270     34.50680     92.12040
   3219.50000    -64.68300      3.21460      4.12740      4.82830      2.28770      0.01870     60.41100     13.37000     34.82910     89.96930
   3220.00000    -62.31950      3.38310      4.37170      4.92230      2.27960      0.00580     60.31770     13.41720     34.92110     88.84790
   3220.50000    -58.71630      3.49020      4.58820      4.96500      2.27150      0.01170     61.03240     13.46440     34.62930     90.01090
   3221.00000    -54.81940      3.58300      4.79830      4.99880      2.27800      0.01780     62.46160     13.51160     34.33760     92.53080
   3221.50000    -50.93740      3.67830      4.93550      5.04860      2.27800      0.02680     64.18590     13.52620     34.46300     96.26910
   3222.00000    -48.03840      3.72340      4.92990      5.22570      2.26140      0.05110     65.57580     13.51320     34.06180    101.40450
   3222.50000    -47.40550      3.74220      4.90790      5.44520      2.29210      0.12010     66.08110     13.50030     34.21130    103.13470
   3223.00000    -48.70780      3.71980      4.75770      5.40380      2.37000      0.19240     65.94420     13.48810     34.60600    102.24750
   3223.50000    -50.56280      3.66860      4.61870      5.01260      2.36600      0.15410     65.44850     13.47640     34.78380    100.95240
