~VERSION INFORMATION
 VERS.                      2.00:        CWLS LOG ASCII STANDARD - VERSION 2.00
 WRAP.                        NO:        ONE LINE PER DEPTH STEP
~WELL INFORMATION
#MNEM.UNIT               DATA            INFORMATION
#----------          ------------        ------------------------------
 STRT.F                  32.0000:        START DEPTH
 STOP.F                9360.0000:        STOP DEPTH
 STEP.F                   0.5000:        STEP VALUE
 NULL.                 -999.2500:        NULL VALUE
 COMP. USGS/HUSKY N.P.R. OPS., I:        COMPANY  
 WELL.            J.W. DALTON #1:        WELL     
 FLD .                   WILDCAT:        FIELD    
 LOC .              14  18N   5W:        LOCATION   
 CNTY.               NORTH SLOPE:        COUNTY  
 STAT.                    ALASKA:        STATE   
 CTRY.                       USA:        COUNTRY 
 DATE.                   5/11/79:        LOG DATE 
 API .              502792000600:        UNIQUE WELL IDENTIFIER 
 OPER. USGS/HUSKY N.P.R. OPS., I:        OPERATOR  
 SRVC.             Dresser Atlas:        SERVICE COMPANY 
 UWI .              502792000600:        UNIQUE WELL ID 
 LAT .                    0.0000:        LATITUDE
 LON .                    0.0000:        LONGITUDE
 DIGS.          Center Line Data:        DIGITIZING COMPANY 
~CURVE INFORMATION      
#MNEM.UNIT            API CODE           CURVE DESCRIPTION
#---------          -------------        ------------------------------
 DEPT.F                         :        1  DEPTH
 SP  .MV                        :        2
 ILD .OHMM                      :        3
 ILM .OHMM                      :        4
 FR  .OHMM                      :        5
 RHOB.G/C3                      :        6
 DRHO.G/C3                      :        7
 GR  .GAPI                      :        8
 CALI.IN                        :        9
 NPHI.%                         :       10
 DT  .US/F                      :       11
~PARAMETER INFORMATION       
~OTHER INFORMATION
~A 
# ...
   2580.00000    -25.41960      2.66420      2.50670      3.24940   -999.00000   -999.00000     72.26660   -999.00000     46.66400    168.96390
   2580.50000    -26.02220      2.74080      2.57890      3.24930   -999.00000   -999.00000     69.60851   -999.00000     46.02120    174.57761
   2581.00000    -26.40710      2.81950      2.65310      3.23920   -999.00000   -999.00000     68.32570   -999.00000     45.06650    170.42709
   2581.50000    -26.75770      2.90040      2.72940      3.22910   -999.00000   -999.00000     68.17550   -999.00000     44.41960    165.26730
   2582.00000    -27.83160      2.98370      2.80790      3.23240   -999.00000   -999.00000     70.73970   -999.00000     44.01020    169.67720
   2582.50000    -28.72700      3.02370      2.86950      3.26290   -999.00000   -999.00000     73.00080   -999.00000     43.76800    166.37000
   2583.00000    -28.96110      3.04380      2.88850      3.31890   -999.00000   -999.00000     73.72760   -999.00000     44.23590    165.06410
   2583.50000    -29.40470      3.06400      2.90770      3.37590   -999.00000   -999.00000     72.98060   -999.00000     45.56290    162.25670
   2584.00000    -30.45010      3.08440      2.92690      3.42820   -999.00000   -999.00000     72.33110   -999.00000     46.62170    161.55930
   2584.50000    -31.60210      3.10490      2.94630      3.46430   -999.00000   -999.00000     72.28700   -999.00000     47.19430    160.14020
   2585.00000    -31.78260      3.12560      2.96590      3.50070   -999.00000   -999.00000     73.05050   -999.00000     47.22740    159.26801
   2585.50000    -31.30250      3.14630      2.98550      3.50260   -999.00000   -999.00000     72.76720   -999.00000     46.66280    158.52341
   2586.00000    -31.61700      3.16730      3.00530      3.47490   -999.00000   -999.00000     73.09280   -999.00000     45.50490    158.30521
   2586.50000    -32.46750      3.18830      3.02520      3.44970   -999.00000   -999.00000     73.38831   -999.00000     44.15090    158.26289
   2587.00000    -33.39810      3.19740      3.03530      3.42640   -999.00000   -999.00000     74.52330   -999.00000     43.25820    157.48970
   2587.50000    -33.10380      3.20390      3.04150      3.40590   -999.00000   -999.00000     75.46930   -999.00000     43.04100    155.51370
   2588.00000    -32.06180      3.21050      3.04770      3.38640   -999.00000   -999.00000     75.23410   -999.00000     43.39240    153.26660
   2588.50000    -31.38580      3.21220      3.04860      3.36710   -999.00000   -999.00000     75.35960   -999.00000     43.92370    151.75771
   2589.00000    -31.51030      3.19550      3.03270      3.36420   -999.00000   -999.00000     76.49480   -999.00000     44.54300    151.41310
   2589.50000    -32.13610      3.17890      3.01700      3.36300   -999.00000   -999.00000     77.91740   -999.00000     45.59320    151.38290
   2590.00000    -32.46850      3.16240      3.00130      3.36180   -999.00000   -999.00000     78.13540   -999.00000     45.95780    151.32410
   2590.50000    -32.89340      3.14600      2.98570      3.36060   -999.00000   -999.00000     77.64170   -999.00000     45.90300    149.79950
   2591.00000    -33.29780      3.12970      2.97020      3.35430   -999.00000   -999.00000     78.52880   -999.00000     45.51810    148.29250
   2591.50000    -33.49540      3.11340      2.95480      3.34810   -999.00000   -999.00000     78.83890   -999.00000     44.99110    145.83569
   2592.00000    -33.90440      3.09730      2.93950      3.33850   -999.00000   -999.00000     78.09130   -999.00000     42.96490    136.13010
   2592.50000    -34.40910      3.08120      2.92420      3.32300   -999.00000   -999.00000     78.25121   -999.00000     42.68060    130.50470
   2593.00000    -34.72520      3.06520      2.90900      3.30760   -999.00000   -999.00000     78.78140   -999.00000     43.24260    145.00810
   2593.50000    -35.21590      3.04930      2.89390      3.29230   -999.00000   -999.00000     77.68490   -999.00000     44.43510    144.34720
   2594.00000    -35.67520      3.03340      2.87890      3.27660   -999.00000   -999.00000     76.05700   -999.00000     45.11540    143.75240
   2594.50000    -34.90020      3.01770      2.86390      3.25760   -999.00000   -999.00000     75.35750   -999.00000     45.55410    142.21291
   2595.00000    -32.86860      3.01070      2.85820      3.23870   -999.00000   -999.00000     75.15370   -999.00000     45.71980    139.36929
   2595.50000    -30.00630      3.00670      2.85440      3.24700   -999.00000   -999.00000     75.60310   -999.00000     46.43770    142.03070
   2596.00000    -27.20590      3.00270      2.85060      3.27730   -999.00000   -999.00000     76.13910   -999.00000     45.77610    143.07249
   2596.50000    -27.51870      2.99880      2.84680      3.30790   -999.00000   -999.00000     73.94680   -999.00000     44.80700    141.39960
   2597.00000    -27.57690      2.99480      2.84300      3.33880   -999.00000   -999.00000     72.91451   -999.00000     44.22100    140.34720
   2597.50000    -26.72050      2.99080      2.83930      3.36070   -999.00000   -999.00000     72.19000   -999.00000     43.08690    138.77040
   2598.00000    -25.91920      3.02160      2.86410      3.32280   -999.00000   -999.00000     73.17900   -999.00000     43.06740    137.64670
   2598.50000    -25.78550      3.05690      2.89760      3.30300   -999.00000   -999.00000     74.04060   -999.00000     43.72630    137.07629
   2599.00000    -26.65730      3.07900      2.92160      3.30980   -999.00000   -999.00000     74.34970   -999.00000     45.01380    135.93370
   2599.50000    -27.05260      3.09950      2.94100      3.35740   -999.00000   -999.00000     75.27540   -999.00000     45.52950    135.06219
   2600.00000    -27.28420      3.11590      2.95750      3.38580   -999.00000   -999.00000     76.67820   -999.00000     45.12350    134.34599
   2600.50000    -27.51570      3.12890      2.96990      3.41290   -999.00000   -999.00000     78.02520   -999.00000     44.66320    133.62981
   2601.00000    -27.74900      3.11370      2.95290      3.42140   -999.00000   -999.00000     79.26350   -999.00000     44.20300    132.56821
   2601.50000    -28.39930      3.08540      2.92610      3.39380   -999.00000   -999.00000     80.50180   -999.00000     43.74270    130.77049
   2602.00000    -28.17400      3.03610      2.77170      3.32810   -999.00000   -999.00000     80.60330   -999.00000     43.39300    128.35320
   2602.50000    -27.66960      2.84450      2.59620      3.23500   -999.00000   -999.00000     79.35260   -999.00000     42.98560    127.15070
   2603.00000    -26.78060      2.66490      2.44420      3.11320   -999.00000   -999.00000     78.07740   -999.00000     42.17490    126.85110
   2603.50000    -25.51690      2.51080      2.30990      2.98090   -999.00000   -999.00000     76.80230   -999.00000     41.36420    126.75590
   2604.00000    -23.08790      2.37290      2.19330      2.85420   -999.00000   -999.00000     76.89460   -999.00000     40.67820    128.50180
   2604.50000    -20.99660      2.27490      2.14840      2.78460   -999.00000   -999.00000     78.89000   -999.00000     41.44810    129.84641
   2605.00000    -19.85530      2.22830      2.11150      2.74300   -999.00000   -999.00000     80.09120   -999.00000     42.41960    131.64610
   2605.50000    -20.06250      2.21550      2.10280      2.72320   -999.00000   -999.00000     82.40430   -999.00000     43.33780    135.56490
   2606.00000    -20.89710      2.20650      2.09420      2.74150   -999.00000   -999.00000     82.79430   -999.00000     43.93330    138.53850
   2606.50000    -20.63280      2.19890      2.08750      2.76000   -999.00000   -999.00000     81.77340   -999.00000     44.52870    142.19119
   2607.00000    -19.99620      2.19980      2.08840      2.77860   -999.00000   -999.00000     80.98930   -999.00000     45.08080    143.37010
   2607.50000    -20.08660      2.20080      2.08940      2.79730   -999.00000   -999.00000     80.53620   -999.00000     44.73170    143.48441
