~VERSION INFORMATION
 VERS.                      2.00:        CWLS LOG ASCII STANDARD - VERSION 2.00
 WRAP.                        NO:        ONE LINE PER DEPTH STEP
~WELL INFORMATION
#MNEM.UNIT               DATA            INFORMATION
#----------          ------------        ------------------------------
 STRT.F                  32.0000:        START DEPTH
 STOP.F                9360.0000:        STOP DEPTH
 STEP.F                   0.5000:        STEP VALUE
 NULL.                 -999.2500:        NULL VALUE
 COMP. USGS/HUSKY N.P.R. OPS., I:        COMPANY  
 WELL.            J.W. DALTON #1:        WELL     
 FLD .                   WILDCAT:        FIELD    
 LOC .              14  18N   5W:        LOCATION   
 CNTY.               NORTH SLOPE:        COUNTY  
 STAT.                    ALASKA:        STATE   
 CTRY.                       USA:        COUNTRY 
 DATE.                   5/11/79:        LOG DATE 
 API .              502792000600:        UNIQUE WELL IDENTIFIER 
 OPER. USGS/HUSKY N.P.R. OPS., I:        OPERATOR  
 SRVC.             Dresser Atlas:        SERVICE COMPANY 
 UWI .              502792000600:        UNIQUE WELL ID 
 LAT .                    0.0000:        LATITUDE
 LON .                    0.0000:        LONGITUDE
 DIGS.          Center Line Data:        DIGITIZING COMPANY 
~CURVE INFORMATION      
#MNEM.UNIT            API CODE           CURVE DESCRIPTION
#---------          -------------        ------------------------------
 DEPT.F                         :        1  DEPTH
 SP  .MV                        :        2
 ILD .OHMM                      :        3
 ILM .OHMM                      :        4
 FR  .OHMM                      :        5
 RHOB.G/C3                      :        6
 DRHO.G/C3                      :        7
 GR  .GAPI                      :        8
 CALI.IN                        :        9
 NPHI.%                         :       10
 DT  .US/F                      :       11
~PARAMETER INFORMATION       
~OTHER INFORMATION
~A 
# ...
   9328.00000    -52.82380     20.72100     23.81280     29.13020      2.72630      0.00520    122.27430      8.20980     18.57560     64.33000
   9328.50000    -52.83640     21.54310     24.68370     29.32430      2.72080      0.00410    124.58340      8.21120     18.76820     64.43570
   9329.00000    -52.80770     22.39790     25.27300     29.96120      2.70970      0.00280    122.11910      8.21250     18.96440     64.51070
   9329.50000    -52.47450     23.10170     25.87640     30.54040      2.69580      0.00160    120.22410      8.21390     18.82700     64.29950
   9330.00000    -52.01660     23.82800     26.43740     32.29260      2.70570      0.00040    115.93890      8.21520     18.27080     63.78610
   9330.50000    -51.62290     24.58530     26.68450     34.63200      2.73230     -0.00090    119.10120      8.21650     17.96330     63.31210
   9331.00000    -50.99920     25.26030     26.55470     40.51210      2.71640     -0.00210    120.97550      8.21620     18.00780     63.01180
   9331.50000    -50.53240     26.17800     26.38550     45.79480      2.70000     -0.00330    121.24170      8.21210     17.89600     62.66350
   9332.00000    -50.06560     26.57490     26.21740     47.60000      2.71180     -0.00460    121.50220      8.20790     17.71490     62.46660
   9332.50000    -49.62060     26.22460     26.05030     45.11470      2.72750     -0.00650    123.38560      8.20370     17.55440     62.37780
   9333.00000    -49.17870     25.75140     25.80960     41.33730      2.73470     -0.00930    125.34220      8.19960     17.40670     62.47680
   9333.50000    -48.52730     25.27090     25.48690     36.78450      2.72270     -0.01250    124.64660      8.19540     17.33580     63.07510
   9334.00000    -48.00250     24.40290     25.16820     31.55600      2.69450     -0.01580    121.28880      8.19120     17.43370     63.99620
   9334.50000    -47.66430     23.56470     24.85340     32.20310      2.67810     -0.01910    117.99700      8.18710     17.55070     64.59690
   9335.00000    -47.32610     22.75520     24.83620     32.81860      2.66180     -0.02240    114.92580      8.18180     17.67870     64.69320
   9335.50000    -47.07780     21.97360     24.86270     32.79220      2.67230     -0.02570    117.58020      8.17620     17.77810     64.67910
   9336.00000    -47.19530     21.34370     24.86950     31.99880      2.67820     -0.02930    120.66930      8.17070     17.81180     64.44200
   9336.50000    -47.27670     20.78050     24.74310     29.88910      2.65200     -0.03300    123.35550      8.16510     17.92100     63.97690
   9337.00000    -47.10320     20.23240     24.13340     27.78960      2.62810     -0.03670    123.76420      8.15950     18.05290     63.56270
   9337.50000    -47.24720     19.88190     23.53430     29.59570      2.63590     -0.03170    119.94740      8.15400     18.31620     63.39670
   9338.00000    -47.49660     19.62570     22.95990     36.26600      2.66310     -0.02240    114.91120      8.14840     18.38490     63.22900
   9338.50000    -47.74480     19.37270     22.44000     39.23830      2.69190     -0.01300    113.25800      8.14280     17.86430     63.07970
   9339.00000    -48.10020     19.05640     22.58050     37.01470      2.72100     -0.00370    116.87260      8.14260     17.44990     63.01610
   9339.50000    -48.82570     19.03060     22.72180     32.74590      2.71850     -0.00130    118.41370      8.14270     17.08080     62.94470
   9340.00000    -49.33750     19.32030     23.18170     28.96930      2.70220      0.00120    114.90930      8.14380     17.02540     62.91340
   9340.50000    -49.84930     19.58990     24.44940     27.03790      2.71430      0.00360    114.40550      8.14480     17.04070     62.89660
   9341.00000    -50.36110     19.97740     25.78830     26.43290      2.72650      0.00490    118.02430      8.14590     17.08840     62.84280
   9341.50000    -50.95100     20.42140     27.20060     26.12920      2.72430      0.00370    120.04720      8.14700     17.04090     62.77920
   9342.00000    -51.45850     22.33370     28.04960     24.36200      2.70820      0.00250    121.31720      8.14810     16.94560     62.69560
   9342.50000    -51.54060     24.55430     28.58200     22.40130      2.68950      0.00130    121.33300      8.14910     16.89180     62.60470
   9343.00000    -51.62710     26.06640     28.93880     21.25260      2.69140      0.00010    118.97210      8.15020     16.84850     62.50480
   9343.50000    -51.67640     27.21520     29.14620     20.88090      2.70480     -0.00100    119.58510      8.15130     17.07260     62.31690
   9344.00000    -51.68570     27.59390     29.12920     22.79870      2.72140     -0.00230    122.73300      8.15240     17.33120     61.96480
   9344.50000    -51.71060     27.42340     29.10200     27.10020      2.74620     -0.00370    124.06650      8.15350     17.37230     61.46330
   9345.00000    -51.65920     27.16840     29.07500     29.87900      2.74040     -0.00500    125.45240      8.14520     17.22090     61.26190
   9345.50000    -51.51540     26.81510     29.03190     33.86640      2.72720     -0.00630    125.06280      8.13660     17.03470     61.49330
   9346.00000    -51.26390     26.60700     29.03910     34.13950      2.73180     -0.00760    121.69710      8.12800     16.91780     61.81950
   9346.50000    -51.13280     26.57980     29.64620     31.80900      2.73270     -0.00890    121.86280      8.11920     16.80100     62.14350
   9347.00000    -50.80420     26.68260     30.15560     32.42440      2.72100     -0.01020    121.98660      8.10950     16.68410     62.47410
   9347.50000    -50.96940     26.50860     30.46120     34.91280      2.71560     -0.01150    121.60130      8.09970     16.56730     62.85140
   9348.00000    -51.11030     25.60030     30.67000     36.67920      2.70210     -0.01280    121.50770      8.08990     16.69000     63.06680
   9348.50000    -51.01840     24.58940     30.24340     37.80850      2.68240     -0.01410    119.16080      8.08020     17.12960     63.29790
   9349.00000    -50.89350     23.20390     29.54290     35.72030      2.67420     -0.01500    116.38040      8.07080     17.58140     63.38000
   9349.50000    -50.89240     21.35460     28.09800     33.01430      2.67410     -0.01460   -999.00000   -999.00000   -999.00000     63.36770
   9350.00000    -50.87940     19.65270     26.24970     31.90280      2.67920     -0.01430   -999.00000   -999.00000   -999.00000     63.54990
   9350.50000    -50.86520     18.12640     24.37790     30.20920      2.66770     -0.01390   -999.00000   -999.00000   -999.00000     63.90610
   9351.00000    -50.85100     17.16210     21.98550     28.46380      2.65860     -0.00680   -999.00000   -999.00000   -999.00000     64.59640
   9351.50000    -51.07240     16.54060     20.14220     25.72680      2.66920      0.00290   -999.00000   -999.00000   -999.00000     64.85740
   9352.00000    -51.09730     15.99920     18.88400     23.42010      2.68400      0.01260   -999.00000   -999.00000   -999.00000     64.47580
   9352.50000    -50.91330     15.75520     17.78880     21.40600      2.74140      0.02230   -999.00000   -999.00000   -999.00000     64.06160
   9353.00000    -50.85440     15.57730     16.93700     19.96820      2.75430      0.02610   -999.00000   -999.00000   -999.00000     63.97300
   9353.50000    -50.68730     15.72160     16.86680     19.47390      2.76220      0.02570   -999.00000   -999.00000   -999.00000     64.00040
   9354.00000    -50.90750     16.14730     17.63820     22.17920      2.73730      0.02160   -999.00000   -999.00000   -999.00000     63.98770
   9354.50000    -51.12700     16.52590     18.90290     25.13230      2.71490      0.01160   -999.00000   -999.00000   -999.00000     63.85300
   9355.00000    -51.34090     16.91340     19.88310     27.63980      2.69660      0.00160   -999.00000   -999.00000   -999.00000     63.53600
   9355.50000    -51.65970     17.28600     20.97100     28.72350      2.66620     -0.00790   -999.00000   -999.00000   -999.00000     62.77890
