~VERSION INFORMATION
 VERS.                      2.00:        CWLS LOG ASCII STANDARD - VERSION 2.00
 WRAP.                        NO:        ONE LINE PER DEPTH STEP
~WELL INFORMATION
#MNEM.UNIT               DATA            INFORMATION
#----------          ------------        ------------------------------
 STRT.F                  32.0000:        START DEPTH
 STOP.F                9360.0000:        STOP DEPTH
 STEP.F                   0.5000:        STEP VALUE
 NULL.                 -999.2500:        NULL VALUE
 COMP. USGS/HUSKY N.P.R. OPS., I:        COMPANY  
 WELL.            J.W. DALTON #1:        WELL     
 FLD .                   WILDCAT:        FIELD    
 LOC .              14  18N   5W:        LOCATION   
 CNTY.               NORTH SLOPE:        COUNTY  
 STAT.                    ALASKA:        STATE   
 CTRY.                       USA:        COUNTRY 
 DATE.                   5/11/79:        LOG DATE 
 API .              502792000600:        UNIQUE WELL IDENTIFIER 
 OPER. USGS/HUSKY N.P.R. OPS., I:        OPERATOR  
 SRVC.             Dresser Atlas:        SERVICE COMPANY 
 UWI .              502792000600:        UNIQUE WELL ID 
 LAT .                    0.0000:        LATITUDE
 LON .                    0.0000:        LONGITUDE
 DIGS.          Center Line Data:        DIGITIZING COMPANY 
~CURVE INFORMATION      
#MNEM.UNIT            API CODE           CURVE DESCRIPTION
#---------          -------------        ------------------------------
 DEPT.F                         :        1  DEPTH
 SP  .MV                        :        2
 ILD .OHMM                      :        3
 ILM .OHMM                      :        4
 FR  .OHMM                      :        5
 RHOB.G/C3                      :        6
 DRHO.G/C3                      :        7
 GR  .GAPI                      :        8
 CALI.IN                        :        9
 NPHI.%                         :       10
 DT  .US/F                      :       11
~PARAMETER INFORMATION       
~OTHER INFORMATION
~A 
# ...
   5016.00000    -95.41520      3.54120      3.81500      3.92080      2.24960      0.13010     78.91560     15.74560     39.13430     93.33330
   5016.50000    -95.18520      3.54130      3.81510      3.92170      2.24250      0.12400     80.31240     15.75660     40.11510     93.08510
   5017.00000    -94.74300      3.54140      3.81520      3.92260      2.22860      0.11790     82.44400     15.76760     40.61280     92.83010
   5017.50000    -94.43840      3.54150      3.81530      3.91860      2.21620      0.10570     82.60780     15.77860     41.17730     92.65890
   5018.00000    -94.44640      3.54160      3.81540      3.91450      2.22020      0.11020     83.41360     15.78960     42.10960     92.46500
   5018.50000    -94.44490      3.54170      3.81560      3.91040      2.23310      0.11470     83.12900     15.80060     42.64810     92.44770
   5019.00000    -94.43020      3.54180      3.81570      3.90630      2.24070      0.11240     83.03020     15.80390     42.96200     92.61570
   5019.50000    -94.41540      3.54190      3.81580      3.90220      2.24920      0.10470     82.63130     15.79270     42.14630     92.79610
   5020.00000    -94.40070      3.54200      3.81590      3.90650      2.23130      0.09930     82.98930     15.78150     41.44740     92.79210
   5020.50000    -94.38600      3.54210      3.81600      3.91670      2.21750      0.09710     83.05160     15.77020     41.00360     92.73780
   5021.00000    -94.37130      3.54220      3.81620      3.92690      2.22940      0.10080     82.33360     15.75750     40.55970     92.81050
   5021.50000    -94.25080      3.54230      3.81630      3.93760      2.25660      0.12960     81.30170     15.74490     39.91330     92.99740
   5022.00000    -94.15790      3.54240      3.81640      3.94830      2.28340      0.15000     81.65380     15.72760     39.26640     93.24600
   5022.50000    -94.29540      3.54250      3.81650      3.95910      2.28790      0.15860     82.72000     15.71170     39.36210     93.46980
   5023.00000    -94.43290      3.54260      3.81660      3.96690      2.27220      0.16140     81.28470     15.70680     39.66500     93.73320
   5023.50000    -94.61080      3.54180      3.81580      3.96870      2.25460      0.16010     81.14900     15.68410     40.02670     94.00740
   5024.00000    -94.85220      3.54030      3.81420      3.97040      2.24710      0.15540     83.60610     15.62510     39.82680     94.24980
   5024.50000    -95.11440      3.53880      3.81260      3.97210      2.24490      0.15160     85.30140     15.56610     39.22630     94.52740
   5025.00000    -95.42780      3.53730      3.81100      3.97380      2.25060      0.15620     85.19560     15.53500     38.82790     94.64010
   5025.50000    -95.46530      3.53590      3.80940      3.97550      2.26460      0.17640     83.98770     15.50820     38.51150     94.47600
   5026.00000    -94.73360      3.53440      3.80780      3.97730      2.27380      0.18720     83.09100     15.48330     37.69700     94.23790
   5026.50000    -94.35070      3.53290      3.80630      3.97900      2.28030      0.19510     82.56110     15.45710     37.94590     93.93630
   5027.00000    -94.40910      3.53260      3.80590      3.97900      2.27930      0.19270     81.86530     15.40900     38.26830     93.54220
   5027.50000    -94.43470      3.53260      3.80590      4.00940      2.28000      0.18360     81.32430     15.30940     38.11020     93.23310
   5028.00000    -94.37770      3.53260      3.80580      4.04690      2.27950      0.18230     80.79050     15.22110     38.16250     93.59230
   5028.50000    -94.32070      3.53220      3.80540      4.04240      2.27730      0.17970     79.75440     15.19290     38.76600     94.30740
   5029.00000    -94.26370      3.53180      3.80500      4.03770      2.27540      0.16650     81.65660     15.17700     38.99160     94.88310
   5029.50000    -94.29910      3.53140      3.80460      4.01630      2.27430      0.16150     82.72180     15.16500     39.27410     94.81060
   5030.00000    -94.44430      3.53930      3.81540      3.99560      2.27670      0.18240     82.36920     15.15690     39.77190     94.65630
   5030.50000    -94.52140      3.56000      3.83770      3.97900      2.27830      0.16520     82.09880     15.15790     40.34030     94.55640
   5031.00000    -94.46080      3.56530      3.84560      3.97900      2.27170      0.14730     82.34170     15.15900     40.91000     94.46860
   5031.50000    -94.41690      3.56310      3.83870      3.97740      2.26410      0.12950     82.47770     15.16010     41.67730     94.40340
   5032.00000    -94.41920      3.56610      3.84210      3.97200      2.25050      0.11350     81.22490     15.16120     41.45240     94.46850
   5032.50000    -94.34390      3.57080      3.84720      3.96670      2.25080      0.10520     80.50360     15.16220     41.14930     94.61200
   5033.00000    -94.15970      3.57560      3.85240      3.96140      2.25970      0.10940     82.03820     15.16330     40.84620     94.62700
   5033.50000    -94.09750      3.58040      3.85750      3.95610      2.25940      0.11500     83.56900     15.16440     40.27820     94.36330
   5034.00000    -94.40150      3.58520      3.86270      3.95080      2.25510      0.12060     82.83380     15.16550     40.24850     94.00510
   5034.50000    -94.68270      3.59000      3.86790      3.94550      2.25090      0.12620     82.19430     15.16660     40.25120     93.72250
   5035.00000    -94.93190      3.59480      3.87300      3.94120      2.24600      0.13180     81.95480     15.16760     40.53190     93.49930
   5035.50000    -95.18120      3.59960      3.87820      3.95240      2.24300      0.13730     82.75820     15.16870     41.06100     93.27150
   5036.00000    -95.35210      3.60440      3.88340      3.96350      2.24200      0.14290     83.43100     15.16920     41.09010     93.31290
   5036.50000    -95.44130      3.60160      3.88040      3.97470      2.24350      0.14830     82.45370     15.16920     41.09800     93.53710
   5037.00000    -95.41040      3.59570      3.87400      3.98600      2.24690      0.15100     82.07380     15.16920     41.08950     93.72040
   5037.50000    -95.11550      3.58980      3.86770      3.99720      2.25470      0.15370     80.53940     15.16920     40.94420     93.61110
   5038.00000    -94.89070      3.58390      3.86130      4.00790      2.25830      0.15420     79.64040     15.16920     39.92430     93.38470
   5038.50000    -94.94490      3.57800      3.85500      4.00790      2.25500      0.15030     78.85590     15.15700     38.93080     93.27880
   5039.00000    -95.02100      3.57210      3.84860      4.00790      2.25360      0.14420     78.38370     15.13590     37.94550     93.67830
   5039.50000    -95.08730      3.56630      3.84230      4.00020      2.25750      0.13500     77.81440     15.11480     37.15590     94.26880
   5040.00000    -95.10250      3.56040      3.83600      3.98720      2.26680      0.12820     76.77290     15.09380     37.17290     94.65900
   5040.50000    -95.41500      3.55470      3.82980      3.97420      2.26050      0.11980     76.16880     15.08580     37.20780     94.84300
   5041.00000    -96.33080      3.54990      3.82460      3.96130      2.25730      0.11410     76.67810     15.07870     37.24720     94.91520
   5041.50000    -96.22480      3.54510      3.81940      3.94850      2.26760      0.13940     78.24740     15.09800     37.44680     94.88680
   5042.00000    -95.76860      3.54030      3.81420      3.94100      2.28230      0.16660     78.05680     15.09110     37.30360     94.85840
   5042.50000    -95.55890      3.53550      3.80910      3.94200      2.28950      0.16730     77.43930     15.08730     37.28350     94.82320
   5043.00000    -95.34920      3.53350      3.80670      3.94300      2.28060      0.16460     77.93470     15.09080     37.70350     94.77460
   5043.50000    -95.13950      3.53160      3.80470      3.94400      2.27490      0.16190     78.45940     15.09430     38.58150     94.69350
