~VERSION INFORMATION
 VERS.                      2.00:        CWLS LOG ASCII STANDARD - VERSION 2.00
 WRAP.                        NO:        ONE LINE PER DEPTH STEP
~WELL INFORMATION
#MNEM.UNIT               DATA            INFORMATION
#----------          ------------        ------------------------------
 STRT.F                  32.0000:        START DEPTH
 STOP.F                9360.0000:        STOP DEPTH
 STEP.F                   0.5000:        STEP VALUE
 NULL.                 -999.2500:        NULL VALUE
 COMP. USGS/HUSKY N.P.R. OPS., I:        COMPANY  
 WELL.            J.W. DALTON #1:        WELL     
 FLD .                   WILDCAT:        FIELD    
 LOC .              14  18N   5W:        LOCATION   
 CNTY.               NORTH SLOPE:        COUNTY  
 STAT.                    ALASKA:        STATE   
 CTRY.                       USA:        COUNTRY 
 DATE.                   5/11/79:        LOG DATE 
 API .              502792000600:        UNIQUE WELL IDENTIFIER 
 OPER. USGS/HUSKY N.P.R. OPS., I:        OPERATOR  
 SRVC.             Dresser Atlas:        SERVICE COMPANY 
 UWI .              502792000600:        UNIQUE WELL ID 
 LAT .                    0.0000:        LATITUDE
 LON .                    0.0000:        LONGITUDE
 DIGS.          Center Line Data:        DIGITIZING COMPANY 
~CURVE INFORMATION      
#MNEM.UNIT            API CODE           CURVE DESCRIPTION
#---------          -------------        ------------------------------
 DEPT.F                         :        1  DEPTH
 SP  .MV                        :        2
 ILD .OHMM                      :        3
 ILM .OHMM                      :        4
 FR  .OHMM                      :        5
 RHOB.G/C3                      :        6
 DRHO.G/C3                      :        7
 GR  .GAPI                      :        8
 CALI.IN                        :        9
 NPHI.%                         :       10
 DT  .US/F                      :       11
~PARAMETER INFORMATION       
~OTHER INFORMATION
~A 
# ...
   1964.00000    -29.16040      2.97840      2.82380      3.07440   -999.00000   -999.00000     90.94960   -999.00000   -999.00000    142.02040
   1964.50000    -32.11940      3.01000      2.85370      3.13600   -999.00000   -999.00000     92.07800   -999.00000   -999.00000    141.82600
   1965.00000    -35.20890      3.04600      2.88620      3.29510   -999.00000   -999.00000     92.27900   -999.00000   -999.00000    141.30220
   1965.50000    -38.41290      3.08490      2.92300      3.41050   -999.00000   -999.00000     92.21580   -999.00000   -999.00000    140.57719
   1966.00000    -40.04370      3.12430      2.96040      3.42460   -999.00000   -999.00000     91.94820   -999.00000   -999.00000    139.61360
   1966.50000    -41.47170      3.16200      2.99820      3.42460   -999.00000   -999.00000     91.43210   -999.00000   -999.00000    138.71719
   1967.00000    -42.32040      3.17070      3.00980      3.42460   -999.00000   -999.00000     91.02610   -999.00000   -999.00000    137.06300
   1967.50000    -42.47290      3.17940      3.01810      3.44450   -999.00000   -999.00000     90.66010   -999.00000   -999.00000    134.70380
   1968.00000    -42.37280      3.18810      3.02640      3.47580   -999.00000   -999.00000     89.26630   -999.00000   -999.00000    132.50130
   1968.50000    -42.05650      3.19680      3.03470      3.48020   -999.00000   -999.00000     87.35580   -999.00000   -999.00000    130.03740
   1969.00000    -40.00840      3.20560      3.04300      3.48060   -999.00000   -999.00000     86.29390   -999.00000   -999.00000    128.97020
   1969.50000    -36.25420      3.17720      3.01280      3.38120   -999.00000   -999.00000     85.75590   -999.00000   -999.00000    129.17760
   1970.00000    -33.69660      3.14560      2.98280      3.30410   -999.00000   -999.00000     85.10320   -999.00000   -999.00000    129.32460
   1970.50000    -33.21190      3.11440      2.95320      3.22880   -999.00000   -999.00000     84.13690   -999.00000   -999.00000    129.52200
   1971.00000    -34.28850      3.08350      2.92390      3.16470   -999.00000   -999.00000     83.06430   -999.00000   -999.00000    129.58820
   1971.50000    -34.83890      3.05280      2.89490      3.12350   -999.00000   -999.00000     82.59640   -999.00000   -999.00000    130.06860
   1972.00000    -35.09010      3.02250      2.86610      3.08300   -999.00000   -999.00000     83.32440   -999.00000   -999.00000    131.25011
   1972.50000    -35.42060      2.99250      2.83770      3.04360   -999.00000   -999.00000     84.46020   -999.00000   -999.00000    132.87970
   1973.00000    -35.46910      2.96280      2.80950      3.00460   -999.00000   -999.00000     85.63910   -999.00000   -999.00000    133.06059
   1973.50000    -35.12190      2.93330      2.78160      2.98930   -999.00000   -999.00000     86.92760   -999.00000   -999.00000    133.63811
   1974.00000    -34.52360      2.94990      2.79890      2.97500   -999.00000   -999.00000     88.49030   -999.00000   -999.00000    133.82870
   1974.50000    -33.90700      2.96880      2.81680      2.96950   -999.00000   -999.00000     89.66390   -999.00000   -999.00000    134.82510
   1975.00000    -33.74750      2.98770      2.83480      2.96810   -999.00000   -999.00000     89.98250   -999.00000   -999.00000    137.27740
   1975.50000    -33.98950      3.00680      2.85290      2.96680   -999.00000   -999.00000     89.89310   -999.00000   -999.00000    138.30791
   1976.00000    -33.53860      3.02600      2.87120      2.99120   -999.00000   -999.00000     89.62890   -999.00000   -999.00000    138.66440
   1976.50000    -32.05920      3.04500      2.88920      3.03870   -999.00000   -999.00000     89.46570   -999.00000   -999.00000    138.52670
   1977.00000    -30.78680      3.06400      2.90730      3.07290   -999.00000   -999.00000     89.41290   -999.00000   -999.00000    137.91400
   1977.50000    -30.07130      3.07850      2.92170      3.10750   -999.00000   -999.00000     89.57500   -999.00000   -999.00000    137.52100
   1978.00000    -30.14270      3.09240      2.93490      3.14240   -999.00000   -999.00000     89.17660   -999.00000   -999.00000    137.94341
   1978.50000    -31.08180      3.10650      2.94820      3.17780   -999.00000   -999.00000     88.70110   -999.00000   -999.00000    138.18359
   1979.00000    -34.08240      3.12050      2.96160      3.21830   -999.00000   -999.00000     88.72130   -999.00000   -999.00000    138.43961
   1979.50000    -37.36400      3.12540      2.96700      3.26860   -999.00000   -999.00000     88.58960   -999.00000   -999.00000    138.45860
   1980.00000    -39.71840      3.12960      2.97100      3.31960   -999.00000   -999.00000     87.83430   -999.00000   -999.00000    137.46210
   1980.50000    -41.33210      3.13370      2.97490      3.37150   -999.00000   -999.00000     85.93450   -999.00000   -999.00000    136.32280
   1981.00000    -41.73580      3.13540      2.97660      3.44600   -999.00000   -999.00000     84.31220   -999.00000   -999.00000    135.64169
   1981.50000    -42.17750      3.13180      2.95270      3.53820   -999.00000   -999.00000     82.96820   -999.00000   -999.00000    133.23970
   1982.00000    -43.43540      3.12820      2.90000      3.68770   -999.00000   -999.00000     80.42490   -999.00000   -999.00000    130.51100
   1982.50000    -44.45310      3.12770      2.84830      3.62140   -999.00000   -999.00000     77.93620   -999.00000   -999.00000    127.55380
   1983.00000    -43.44190      3.12770      2.79750      3.49370   -999.00000   -999.00000     75.78560   -999.00000   -999.00000    124.92960
   1983.50000    -41.74320      3.10080      2.77980      3.39330   -999.00000   -999.00000     73.35010   -999.00000   -999.00000    124.75640
   1984.00000    -40.35070      3.06500      2.79340      3.39330   -999.00000   -999.00000     71.99420   -999.00000   -999.00000    125.55840
   1984.50000    -39.17020      3.02960      2.80870      3.41490   -999.00000   -999.00000     70.86270   -999.00000   -999.00000    126.50700
   1985.00000    -38.32840      2.97840      2.82770      3.44150   -999.00000   -999.00000     69.65450   -999.00000   -999.00000    127.50100
   1985.50000    -36.99390      2.89750      2.82280      3.37700   -999.00000   -999.00000     68.60010   -999.00000   -999.00000    128.20380
   1986.00000    -33.23280      2.78560      2.75980      3.24420   -999.00000   -999.00000     67.35010   -999.00000   -999.00000    130.58250
   1986.50000    -29.23710      2.67290      2.63450      2.99090   -999.00000   -999.00000     66.06920   -999.00000   -999.00000    131.50580
   1987.00000    -23.08680      2.55640      2.51930      2.69680   -999.00000   -999.00000     65.24700   -999.00000   -999.00000    132.42909
   1987.50000    -18.59070      2.44500      2.40970      2.56660   -999.00000   -999.00000     65.17020   -999.00000   -999.00000    133.35240
   1988.00000    -14.76730      2.33850      2.30450      2.47960   -999.00000   -999.00000     65.69060   -999.00000   -999.00000    134.27570
   1988.50000    -12.34820      2.23660      2.19580      2.43670   -999.00000   -999.00000     66.56680   -999.00000   -999.00000    135.19910
   1989.00000    -11.67840      2.16750      2.07290      2.42640   -999.00000   -999.00000     67.97700   -999.00000   -999.00000    136.12241
   1989.50000    -11.75260      2.16000      2.01320      2.47260   -999.00000   -999.00000     69.76660   -999.00000   -999.00000    137.04570
   1990.00000    -11.66940      2.15250      1.99320      2.49900   -999.00000   -999.00000     72.14830   -999.00000   -999.00000    137.96899
   1990.50000    -11.61780      2.15460      1.99960      2.48290   -999.00000   -999.00000     75.61910   -999.00000   -999.00000    138.89230
   1991.00000    -11.56210      2.16190      2.00600      2.48870   -999.00000   -999.00000     78.24040   -999.00000   -999.00000    139.81560
   1991.50000    -11.53700      2.16930      2.01510      2.57190   -999.00000   -999.00000     81.55760   -999.00000   -999.00000    140.63429
