~VERSION INFORMATION
 VERS.                      2.00:        CWLS LOG ASCII STANDARD - VERSION 2.00
 WRAP.                        NO:        ONE LINE PER DEPTH STEP
~WELL INFORMATION
#MNEM.UNIT               DATA            INFORMATION
#----------          ------------        ------------------------------
 STRT.F                  32.0000:        START DEPTH
 STOP.F                9360.0000:        STOP DEPTH
 STEP.F                   0.5000:        STEP VALUE
 NULL.                 -999.2500:        NULL VALUE
 COMP. USGS/HUSKY N.P.R. OPS., I:        COMPANY  
 WELL.            J.W. DALTON #1:        WELL     
 FLD .                   WILDCAT:        FIELD    
 LOC .              14  18N   5W:        LOCATION   
 CNTY.               NORTH SLOPE:        COUNTY  
 STAT.                    ALASKA:        STATE   
 CTRY.                       USA:        COUNTRY 
 DATE.                   5/11/79:        LOG DATE 
 API .              502792000600:        UNIQUE WELL IDENTIFIER 
 OPER. USGS/HUSKY N.P.R. OPS., I:        OPERATOR  
 SRVC.             Dresser Atlas:        SERVICE COMPANY 
 UWI .              502792000600:        UNIQUE WELL ID 
 LAT .                    0.0000:        LATITUDE
 LON .                    0.0000:        LONGITUDE
 DIGS.          Center Line Data:        DIGITIZING COMPANY 
~CURVE INFORMATION      
#MNEM.UNIT            API CODE           CURVE DESCRIPTION
#---------          -------------        ------------------------------
 DEPT.F                         :        1  DEPTH
 SP  .MV                        :        2
 ILD .OHMM                      :        3
 ILM .OHMM                      :        4
 FR  .OHMM                      :        5
 RHOB.G/C3                      :        6
 DRHO.G/C3                      :        7
 GR  .GAPI                      :        8
 CALI.IN                        :        9
 NPHI.%                         :       10
 DT  .US/F                      :       11
~PARAMETER INFORMATION       
~OTHER INFORMATION
~A 
# ...
   4428.00000    -77.37970      3.83870      4.13670      4.10310      2.30580      0.22900     76.51330     16.55340     40.86360     98.25740
   4428.50000    -77.69580      3.82270      4.11940      4.04550      2.27970      0.22850     76.29440     16.56070     41.12190     97.90090
   4429.00000    -77.96160      3.80670      4.10820      4.07010      2.28030      0.24090     77.00190     16.56090     40.91880     97.39880
   4429.50000    -78.22750      3.79080      4.12260      4.10210      2.28030      0.24130     77.73040     16.55470     40.43890     96.69740
   4430.00000    -77.61320      3.77490      4.13710      4.12150      2.26840      0.19020     77.54360     16.54210     39.89600     95.56580
   4430.50000    -77.01080      3.75750      4.15170      4.11420      2.28310      0.14730     77.48910     16.53730     39.17600     94.11310
   4431.00000    -76.52510      3.73970      4.16630      4.06390      2.28950      0.14790     76.36970     16.53310     38.44640     92.78250
   4431.50000    -76.03940      3.74380      4.20330      3.99850      2.30090      0.15330     73.49180     16.49550     37.95030     91.73550
   4432.00000    -75.38150      3.78660      4.27670      3.97320      2.31380      0.15360     73.86770     16.41070     38.00070     90.69440
   4432.50000    -74.91690      3.82990      4.35130      3.98280      2.31410      0.15390     74.26580     16.37780     37.89300     90.28390
   4433.00000    -74.82890      3.87410      4.42140      4.17540      2.32660      0.15730     73.42630     16.37590     37.63130     90.83110
   4433.50000    -74.76250      3.94200      4.47760      4.46650      2.34610      0.16600     73.61520     16.37050     37.34040     91.51950
   4434.00000    -74.80780      4.01610      4.53450      4.70740      2.35490      0.18900     72.33900     16.36370     37.03360     91.83940
   4434.50000    -74.85470      4.08710      4.59210      4.71520      2.36610      0.21320     71.04850     16.33370     36.74180     92.10040
   4435.00000    -74.90500      4.15450      4.65050      4.66940      2.36850      0.23750     70.45460     16.29150     37.12130     92.44830
   4435.50000    -74.82930      4.19090      4.67390      4.61050      2.35680      0.23240     70.83970     16.26010     37.31160     92.81400
   4436.00000    -74.62200      4.18720      4.65280      4.57940      2.33690      0.21140     71.36370     16.24360     38.32750     93.23550
   4436.50000    -74.51420      4.18350      4.63180      4.62350      2.32350      0.19670     71.78280     16.23310     39.15040     93.35110
   4437.00000    -74.60810      4.17980      4.61090      4.75220      2.32950      0.19770     71.93290     16.22540     39.71100     92.45710
   4437.50000    -75.05910      4.17610      4.61210      4.89880      2.35660      0.19690     71.88940     16.20450     40.26800     91.13080
   4438.00000    -75.47950      4.17240      4.67070      4.73280      2.38280      0.17610     69.33040     16.17520     40.52590     90.41960
   4438.50000    -75.82720      4.16880      4.73000      4.40160      2.38450      0.16460     69.70810     16.18280     41.30280     91.25720
   4439.00000    -76.02150      4.16510      4.77600      4.22240      2.37300      0.15300     70.83940     16.25710     40.68680     92.75770
   4439.50000    -76.25400      4.16260      4.74190      4.44720      2.35150      0.14150     71.45770     16.36100     39.65170     93.94550
   4440.00000    -77.00800      4.16450      4.70810      4.98420      2.35490      0.13660     71.67580     16.33850     38.44810     94.19010
   4440.50000    -77.36230      4.16640      4.67450      5.17060      2.36520      0.13730     71.94080     16.31350     38.22820     94.29010
   4441.00000    -77.20280      4.16840      4.64110      4.85770      2.34760      0.14240     73.47470     16.31980     38.66350     94.02320
   4441.50000    -77.04940      4.17030      4.62200      4.48180      2.29840      0.14450     72.38110     16.40030     38.50920     93.23530
   4442.00000    -77.21120      4.17220      4.60620      4.23760      2.27930      0.14660     71.67890     16.53350     38.44470     92.24340
   4442.50000    -77.26310      4.17390      4.59090      4.26250      2.30610      0.14640     70.35190     16.60380     39.05540     91.89540
   4443.00000    -76.77110      4.17350      4.57570      4.56270      2.31610      0.14450     69.29350     16.64530     39.78470     92.25420
   4443.50000    -76.02650      4.17300      4.56050      4.69670      2.33280      0.14470     68.59500     16.68150     40.33840     92.57940
   4444.00000    -75.26160      4.17260      4.54310      4.56870      2.33930      0.14990     68.53500     16.67480     40.65230     92.34160
   4444.50000    -74.73340      4.17220      4.52500      4.41210      2.31730      0.15750     67.92690     16.68340     40.91810     91.88530
   4445.00000    -74.95720      4.16920      4.50820      4.35150      2.30600      0.16800     67.93560     16.69320     41.14040     91.96630
   4445.50000    -75.49480      4.14630      4.49160      4.35540      2.31630      0.16980     69.51330     16.60240     41.11140     93.48210
   4446.00000    -76.06780      4.12350      4.46710      4.35920      2.32850      0.15790     70.28180     16.51670     40.41170     95.07440
   4446.50000    -76.58220      4.10080      4.44280      4.36300      2.33750      0.14360     71.77680     16.47320     39.58360     95.53710
   4447.00000    -77.04100      4.07860      4.43720      4.33940      2.33720      0.13260     71.50170     16.44920     39.22020     92.60090
   4447.50000    -77.46850      4.05680      4.43170      4.24190      2.33620      0.14040     71.03840     16.44130     40.20310     88.99370
   4448.00000    -77.53210      4.04820      4.43260      4.09830      2.32110      0.14040     72.91060     16.46160     40.34360     86.97100
   4448.50000    -77.57060      4.05140      4.62250      3.98610      2.28950      0.12260     74.77680     16.48360     39.89970     88.01620
   4449.00000    -77.54980      4.08100      4.86390      3.98500      2.27280      0.10420     74.90120     16.49040     38.98090     89.24960
   4449.50000    -77.41870      4.13220      4.82830      4.19570      2.26250      0.11120     73.60060     16.47290     38.40870     90.55100
   4450.00000    -77.10450      4.20420      4.77750      4.78710      2.29950      0.13330     73.06590     16.45540     38.22480     92.25290
   4450.50000    -76.83620      4.27750      4.71400      5.31300      2.34900      0.15340     72.55580     16.43780     38.24380     94.29440
   4451.00000    -76.64670      4.33240      4.64030      5.14170      2.36470      0.16350     71.84580     16.42030     38.34940     95.98270
   4451.50000    -76.41620      4.35060      4.56310      4.73710      2.36320      0.15630     70.50020     16.47750     38.45510     97.56770
   4452.00000    -76.28990      4.32640      4.48250      4.44930      2.34810      0.14350     69.26720     16.68660     38.96190     98.88930
   4452.50000    -76.26960      4.28810      4.40330      4.35640      2.33440      0.15280     69.37650     16.82650     38.99100     98.49150
   4453.00000    -76.40200      4.24180      4.33880      4.26550      2.30660      0.16630     71.72260     16.93250     38.52200     95.91700
   4453.50000    -76.60540      4.19310      4.30620      4.17640      2.27740      0.16390     73.32240     16.86950     38.45440     92.60400
   4454.00000    -77.01900      4.14490      4.34630      4.12370      2.24810      0.14900     74.89840     16.90800     38.56110     91.47390
   4454.50000    -77.24350      4.12640      4.38150      4.09750      2.22230      0.14020     75.51800     16.93040     38.94600     91.11840
   4455.00000    -76.91480      4.12450      4.37150      4.18050      2.22620      0.14060     75.74370     16.94860     39.14850     91.01710
   4455.50000    -76.22860      4.16430      4.37580      4.26210      2.24850      0.14900     76.03060     16.83990     40.32740     91.68820
