~VERSION INFORMATION
 VERS.                      2.00:        CWLS LOG ASCII STANDARD - VERSION 2.00
 WRAP.                        NO:        ONE LINE PER DEPTH STEP
~WELL INFORMATION
#MNEM.UNIT               DATA            INFORMATION
#----------          ------------        ------------------------------
 STRT.F                  32.0000:        START DEPTH
 STOP.F                9360.0000:        STOP DEPTH
 STEP.F                   0.5000:        STEP VALUE
 NULL.                 -999.2500:        NULL VALUE
 COMP. USGS/HUSKY N.P.R. OPS., I:        COMPANY  
 WELL.            J.W. DALTON #1:        WELL     
 FLD .                   WILDCAT:        FIELD    
 LOC .              14  18N   5W:        LOCATION   
 CNTY.               NORTH SLOPE:        COUNTY  
 STAT.                    ALASKA:        STATE   
 CTRY.                       USA:        COUNTRY 
 DATE.                   5/11/79:        LOG DATE 
 API .              502792000600:        UNIQUE WELL IDENTIFIER 
 OPER. USGS/HUSKY N.P.R. OPS., I:        OPERATOR  
 SRVC.             Dresser Atlas:        SERVICE COMPANY 
 UWI .              502792000600:        UNIQUE WELL ID 
 LAT .                    0.0000:        LATITUDE
 LON .                    0.0000:        LONGITUDE
 DIGS.          Center Line Data:        DIGITIZING COMPANY 
~CURVE INFORMATION      
#MNEM.UNIT            API CODE           CURVE DESCRIPTION
#---------          -------------        ------------------------------
 DEPT.F                         :        1  DEPTH
 SP  .MV                        :        2
 ILD .OHMM                      :        3
 ILM .OHMM                      :        4
 FR  .OHMM                      :        5
 RHOB.G/C3                      :        6
 DRHO.G/C3                      :        7
 GR  .GAPI                      :        8
 CALI.IN                        :        9
 NPHI.%                         :       10
 DT  .US/F                      :       11
~PARAMETER INFORMATION       
~OTHER INFORMATION
~A 
# ...
   7480.00000    -64.13130     10.58310      9.95690     11.14380      2.10960      0.17580     84.23260     13.77370     30.44660     66.10410
   7480.50000    -64.16570      9.18300      8.78790     10.10310      2.09390      0.21630     88.04340     13.86270     32.56250     73.41120
   7481.00000    -64.10510      7.49810      7.14990      9.14010      2.07720      0.24920     93.66580     13.94970     34.67850     79.18690
   7481.50000    -64.04440      5.57200      5.58550      8.47090      2.00570      0.26730    103.32900     14.11610     37.64060     84.96270
   7482.00000    -63.98380      4.04550      4.42070      8.44340      2.00030      0.21280    115.37280     14.53880     39.52450     90.70690
   7482.50000    -63.92320      3.22410      3.68040      7.88160      2.00010      0.15830    132.61310     15.29550     41.38980     93.30750
   7483.00000    -63.86260      2.83000      3.06410      5.18010      2.00000      0.10430    149.62270     16.03790     43.25520     93.48790
   7483.50000    -63.80200      2.46090      2.55100      3.71310      1.99980      0.06440    160.51711     17.25360     45.18290     93.32920
   7484.00000    -63.74140      2.19710      2.32770      3.51000      1.99970      0.12240    151.44400     17.47980     46.17150     92.67090
   7484.50000    -63.65870      1.92470      2.15770      3.61260      1.99950      0.12070    141.88040     16.40430     46.66430     91.57000
   7485.00000    -63.54870      1.73360      2.07780      3.64870      1.99940      0.10310    137.54810     15.04230     46.56220     89.90250
   7485.50000    -63.43870      1.63550      2.03690      3.68520      1.99920      0.08950    134.25740     15.71590     46.02450     89.37880
   7486.00000    -63.32870      1.60650      2.02210      3.70450      1.99900      0.13310    129.95770     17.02640     45.50690     91.03040
   7486.50000    -63.21880      1.58640      2.00740      3.74160      1.99890      0.12030    127.93070     16.65970     44.15760     92.71400
   7487.00000    -63.10880      1.57430      1.99280      3.86450      1.99870      0.10370    127.72790     16.24640     43.06630     92.73750
   7487.50000    -62.99880      1.57980      1.97840      3.89820      1.99860      0.10660    127.57410     16.73580     42.37800     92.29390
   7488.00000    -62.90120      1.58530      1.96570      3.77920      1.99840      0.14040    129.42590     16.73820     42.52040     94.30530
   7488.50000    -62.85400      1.59040      1.95930      3.70650      1.99830      0.14810    131.21100     16.18190     41.86030     95.62140
   7489.00000    -62.80690      1.59520      1.95300      3.71980      1.99810      0.15350    132.78169     15.91840     41.44740     94.37650
   7489.50000    -62.75980      1.62190      1.94670      3.69370      1.99790      0.14010    135.12421     16.03370     42.44090     96.11510
   7490.00000    -62.70800      1.64970      1.95860      3.65090      1.99780      0.12300    137.73610     16.22550     43.97010     97.08260
   7490.50000    -62.65510      1.69010      2.00420      3.61280      1.99760      0.11940    137.91409     15.63580     44.30760     94.19130
   7491.00000    -62.60220      1.74670      2.05090      3.72200      1.99750      0.13650    137.84689     15.04610     44.00990     93.98150
   7491.50000    -62.65320      1.80510      2.09870      3.91340      1.99730      0.15110    136.06731     14.58100     43.74400     94.06750
   7492.00000    -62.73090      1.86470      2.14750      4.09290      1.99940      0.20030    135.48779     14.43900     42.81440     92.77080
   7492.50000    -62.95550      1.89020      2.19760      4.09520      2.00840      0.22640    138.17180     14.29710     42.55550     92.14740
   7493.00000    -63.23060      1.91600      2.25210      3.94170      2.01730      0.24340    140.85580     14.30320     42.79800     92.54430
   7493.50000    -63.43280      1.93180      2.27440      3.77330      2.01740      0.26780    144.36099     14.47440     43.45170     92.18260
   7494.00000    -63.46240      1.91630      2.26000      3.79550      2.00010      0.24210    151.96310     14.64560     44.41690     92.26210
   7494.50000    -63.26120      1.86040      2.21410      4.01990      1.99830      0.21210    158.77820     14.82740     44.43490     92.81690
   7495.00000    -63.06010      1.80040      2.15340      4.30010      1.99850      0.18330    163.43210     15.02050     44.04260     93.05310
   7495.50000    -62.85890      1.74250      2.09430      4.22910      1.99870      0.18150    163.36470     15.12240     43.77160     92.54210
   7496.00000    -62.67970      1.69000      2.03690      3.83110      1.99890      0.19520    158.90520     15.28560     43.62900     91.55300
   7496.50000    -62.67970      1.64930      1.98100      3.51770      1.99900      0.19950    150.20270     15.02390     43.53550     90.90070
   7497.00000    -62.67970      1.63100      1.94200      3.40300      1.99920      0.20370    141.72321     14.96210     43.44190     90.71680
   7497.50000    -62.67970      1.61280      1.91690      3.36400      1.99940      0.21920    134.22670     14.90030     43.34840     90.06820
   7498.00000    -62.67970      1.59480      1.90460      3.42290      1.99960      0.22830    131.50970     14.94500     42.98830     88.92520
   7498.50000    -62.67970      1.57950      1.90330      3.48360      1.99980      0.22550    130.59990     15.17690     42.50660     88.03160
   7499.00000    -62.70470      1.58200      1.93800      3.40800      2.00000      0.22270    125.82230     15.40890     42.02490     87.93840
   7499.50000    -62.79880      1.58990      1.95870      3.32590      2.00020      0.21450    123.34610     15.64080     41.37630     88.68970
   7500.00000    -62.89290      1.59810      1.97310      3.35630      2.00030      0.17700    121.95430     15.52530     40.55430     88.70210
   7500.50000    -62.98700      1.62610      1.98770      3.38690      2.00050      0.13190    122.70350     15.35470     39.89300     88.68420
   7501.00000    -63.08110      1.66200      2.00240      3.30380      2.00070      0.09500    125.51950     15.37170     39.29700     89.19780
   7501.50000    -63.17520      1.69870      2.06340      3.17670      2.10400      0.10270    128.08099     15.25770     40.20440     88.38890
   7502.00000    -63.26930      1.75350      2.13710      3.01900      2.27530      0.19780    134.31210     14.63550     39.53390     86.12320
   7502.50000    -63.36340      1.81110      2.21350      2.96260      2.33390      0.27180    145.05380     14.76110     38.86340     86.47690
   7503.00000    -63.45740      1.85850      2.29260      3.09170      2.28910      0.27390    157.59010     14.43720     38.19290     87.68010
   7503.50000    -63.55150      1.89650      2.36800      3.25500      2.24100      0.27650    165.91800     14.11320     37.87250     87.91790
   7504.00000    -63.64560      1.94950      2.39620      3.45290      2.21790      0.27960    163.90939     13.87020     38.55200     89.32380
   7504.50000    -63.73970      1.99150      2.42050      3.84070      2.20110      0.28200    156.32500     13.98730     39.40000     91.33850
   7505.00000    -63.83380      2.03450      2.43090      3.92830      2.17590      0.28390    152.12270     14.10980     40.50560     90.52380
   7505.50000    -63.92790      2.07830      2.44150      3.76500      2.15040      0.28030    151.97301     14.23240     41.63840     90.21900
   7506.00000    -64.02200      2.12320      2.45200      3.47640      2.15900      0.25160    155.08160     14.35490     42.61570     89.73290
   7506.50000    -64.11570      2.13330      2.46260      3.29060      2.15770      0.22280    157.94009     14.43730     42.43360     88.75940
   7507.00000    -64.16210      2.12290      2.47330      3.27100      2.14630      0.19410    160.79860     14.47480     42.19790     89.15430
   7507.50000    -64.20850      2.11920      2.48400      3.38290      2.14440      0.17050    162.40680     14.45030     42.14100     89.93850
