~VERSION INFORMATION
 VERS.                      2.00:        CWLS LOG ASCII STANDARD - VERSION 2.00
 WRAP.                        NO:        ONE LINE PER DEPTH STEP
~WELL INFORMATION
#MNEM.UNIT               DATA            INFORMATION
#----------          ------------        ------------------------------
 STRT.F                  32.0000:        START DEPTH
 STOP.F                9360.0000:        STOP DEPTH
 STEP.F                   0.5000:        STEP VALUE
 NULL.                 -999.2500:        NULL VALUE
 COMP. USGS/HUSKY N.P.R. OPS., I:        COMPANY  
 WELL.            J.W. DALTON #1:        WELL     
 FLD .                   WILDCAT:        FIELD    
 LOC .              14  18N   5W:        LOCATION   
 CNTY.               NORTH SLOPE:        COUNTY  
 STAT.                    ALASKA:        STATE   
 CTRY.                       USA:        COUNTRY 
 DATE.                   5/11/79:        LOG DATE 
 API .              502792000600:        UNIQUE WELL IDENTIFIER 
 OPER. USGS/HUSKY N.P.R. OPS., I:        OPERATOR  
 SRVC.             Dresser Atlas:        SERVICE COMPANY 
 UWI .              502792000600:        UNIQUE WELL ID 
 LAT .                    0.0000:        LATITUDE
 LON .                    0.0000:        LONGITUDE
 DIGS.          Center Line Data:        DIGITIZING COMPANY 
~CURVE INFORMATION      
#MNEM.UNIT            API CODE           CURVE DESCRIPTION
#---------          -------------        ------------------------------
 DEPT.F                         :        1  DEPTH
 SP  .MV                        :        2
 ILD .OHMM                      :        3
 ILM .OHMM                      :        4
 FR  .OHMM                      :        5
 RHOB.G/C3                      :        6
 DRHO.G/C3                      :        7
 GR  .GAPI                      :        8
 CALI.IN                        :        9
 NPHI.%                         :       10
 DT  .US/F                      :       11
~PARAMETER INFORMATION       
~OTHER INFORMATION
~A 
# ...
   8712.00000    -56.94830      3.94970      4.65570      4.66940      2.50870      0.10000     84.10690     11.32080     20.72760     80.50000
   8712.50000    -56.96270      3.90360      4.47280      3.70350      2.48400      0.11340     83.87120     11.49910     20.38960     73.22900
   8713.00000    -56.96090      3.82950      4.43420      3.35090      2.41300      0.12670     84.00050     11.49620     20.17590     81.61920
   8713.50000    -56.95850      3.66480      4.46990      3.37570      2.34180      0.14010     83.27020     11.54410     20.74680     80.15600
   8714.00000    -56.94820      3.53760      4.53040      4.11850      2.31110      0.10200     82.67970     11.63830     21.31770     78.06000
   8714.50000    -56.93790      3.49700      4.51680      4.56750      2.33280      0.06350     81.26570     11.80010     21.41440     76.98040
   8715.00000    -56.86480      3.52090      4.47360      4.43210      2.35450      0.02500     78.82140     12.03010     21.01790     76.39400
   8715.50000    -56.72580      3.60360      4.45030      4.21040      2.37630     -0.01350     78.16010     12.23170     21.06100     76.59640
   8716.00000    -56.60240      3.66130      4.46200      3.95030      2.35590      0.01290     75.99890     12.24070     21.52220     79.21780
   8716.50000    -56.48880      3.60400      4.47360      3.70880      2.31440      0.05390     78.99430     12.52760     22.20110     83.15620
   8717.00000    -56.43100      3.37680      4.48640      3.74820      2.27150      0.09490     79.55000     13.10690     22.79110     85.37110
   8717.50000    -56.41470      3.14790      4.45570      4.33910      2.22570      0.13480     80.53050     13.44000     23.72960     85.15820
   8718.00000    -56.40960      2.99590      4.25930      4.77400      2.17990      0.11300     81.30570     13.28700     24.29790     84.39750
   8718.50000    -56.32870      2.91540      4.01210      4.06030      2.13410      0.09110     81.49550     13.17630     23.73850     80.50330
   8719.00000    -56.34540      2.87660      3.77920      3.45700      2.08840      0.06930     81.32190     13.05810     23.17910     74.84150
   8719.50000    -56.36220      2.92530      3.67590      3.21420      2.04260      0.04750     82.08170     12.70880     23.15530     70.08420
   8720.00000    -56.16900      2.98750      3.64130      3.02270      2.06910      0.02500     82.70210     12.70880     23.91440     70.81810
   8720.50000    -55.91370      3.05110      3.93230      2.97790      2.15610      0.00230     83.13010     12.94100     24.35330     72.06830
   8721.00000    -55.96430      3.25000      4.10050      3.11090      2.24310     -0.02040     83.66690     13.03430     24.60430     72.36880
   8721.50000    -56.31480      3.46770      4.36250      3.36980      2.33000     -0.03280     83.85850     12.90210     24.64340     71.92550
   8722.00000    -56.53040      3.68780      4.65710      4.08180      2.41700     -0.02330     83.35790     11.27890     23.93080     71.57170
   8722.50000    -56.67530      3.92190      4.97300      4.57160      2.50400     -0.01390     81.66510     10.41000     22.83450     71.97360
   8723.00000    -56.80620      4.17080      5.31040      4.73370      2.50860     -0.00440     78.04020     10.16060     21.68450     72.80490
   8723.50000    -56.89640      4.53820      5.63020      5.09740      2.51300      0.00230     76.67370     10.07390     20.05930     73.34460
   8724.00000    -57.11240      4.80530      5.87340      5.73900      2.50450      0.00550     79.60740      9.99280     18.37700     72.97140
   8724.50000    -57.32830      5.08220      5.95840      6.01350      2.46450      0.00650     83.88870      9.96450     17.89730     72.40190
   8725.00000    -56.88430      5.19310      6.01920      5.34870      2.43180      0.00470     87.01980      9.96590     18.05550     72.16550
   8725.50000    -56.49610      5.23600      6.06760      4.48980      2.39910      0.00150     92.26030      9.87640     18.32720     71.50001
   8726.00000    -56.10800      5.24040      6.10990      4.54450      2.36640     -0.00770     93.81920      9.80490     18.34610     71.80002
   8726.50000    -55.88120      5.17810      6.13640      5.07280      2.35070     -0.01880     93.51840      9.73980     18.36490     72.09999
   8727.00000    -55.90160      5.09140      6.14150      5.47510      2.38230     -0.03000     95.47560      9.74700     18.21830     72.40000
   8727.50000    -55.66510      5.00770      6.08660      5.93350      2.39330     -0.04120    102.51760      9.78810     17.99960     72.69998
   8728.00000    -55.27840      4.90490      6.02690      5.54010      2.36000     -0.05240    101.96810      9.84890     17.71700     72.99998
   8728.50000    -55.37670      4.73970      5.86980      4.88170      2.32660     -0.06350    104.10780     10.09910     17.40490     73.60000
   8729.00000    -55.54860      4.57400      5.67260      4.64900      2.31890     -0.07160    106.23570     10.64480     17.17840     74.19998
   8729.50000    -55.55640      4.41410      5.48210      4.81900      2.35300     -0.06130    106.29570     10.82000     16.92440     74.80000
   8730.00000    -55.35680      4.25980      5.31480      5.19400      2.38710     -0.04200    106.94700     10.91880     16.57660     75.40000
   8730.50000    -55.15710      4.11080      5.17600      4.88300      2.49030     -0.02270    105.86060     10.64140     16.72360     75.40000
   8731.00000    -54.96990      3.96300      5.04080      4.39740      2.53600     -0.00340    103.51730     10.15370     17.52130     75.40000
   8731.50000    -54.98010      3.82010      4.90910      4.00470      2.53650      0.01590    101.70550      9.67350     18.72710     75.40000
   8732.00000    -55.04610      3.68240      4.76400      4.29440      2.53720      0.03000    100.39970      9.65560     19.77460     75.40000
   8732.50000    -55.08050      3.63360      4.65750      4.62030      2.53190      0.04210    104.47590      9.65640     19.81810     75.92500
   8733.00000    -55.16640      3.67250      4.64360      4.16310      2.52760      0.05420    104.54560      9.66450     19.55580     76.45000
   8733.50000    -55.26220      3.74600      4.70170      3.75100      2.52330      0.06630    103.19610      9.67940     19.86800     76.97499
   8734.00000    -54.98080      3.83000      4.82990      3.57750      2.47490      0.07850    103.30880      9.76770     20.37920     77.50000
   8734.50000    -54.66330      3.91580      4.96160      4.05070      2.42660      0.09060    101.84040      9.60960     19.96080     78.02500
   8735.00000    -54.49350      4.00360      5.10560      4.66250      2.45080      0.10470     99.52430      9.31200     19.38770     78.55000
   8735.50000    -54.32360      4.09330      5.33950      5.11700      2.52450      0.13110     99.05970      9.32870     18.68640     79.07500
   8736.00000    -54.31420      4.18510      5.45750      5.08350      2.59830      0.15760    101.48910      9.64570     18.06000     79.59999
   8736.50000    -54.46920      4.19630      5.43800      5.03970      2.59420      0.18400    100.84760      9.99800     17.46270     80.22140
   8737.00000    -54.55140      4.19270      5.34720      4.84910      2.58970      0.19040    100.44970     10.08970     17.27640     80.57070
   8737.50000    -54.50650      4.09820      5.25450      4.63010      2.57590      0.18310    103.42440     10.14320     18.01160     80.66850
   8738.00000    -54.41790      3.97440      5.13750      4.58160      2.53050      0.17590    107.65280     10.14010     19.42060     80.44520
   8738.50000    -54.32930      3.75150      4.96860      4.54960      2.50190      0.16430    111.11830     10.14510     20.36200     79.63930
   8739.00000    -54.21870      3.62450      4.80540      4.48480      2.48660      0.15240    112.45500     10.15560     20.41640     78.18570
   8739.50000    -54.14440      3.52810      4.64750      4.30670      2.46840      0.14050    111.78490     10.15010     20.25830     76.78550
