~VERSION INFORMATION
 VERS.                      2.00:        CWLS LOG ASCII STANDARD - VERSION 2.00
 WRAP.                        NO:        ONE LINE PER DEPTH STEP
~WELL INFORMATION
#MNEM.UNIT               DATA            INFORMATION
#----------          ------------        ------------------------------
 STRT.F                  32.0000:        START DEPTH
 STOP.F                9360.0000:        STOP DEPTH
 STEP.F                   0.5000:        STEP VALUE
 NULL.                 -999.2500:        NULL VALUE
 COMP. USGS/HUSKY N.P.R. OPS., I:        COMPANY  
 WELL.            J.W. DALTON #1:        WELL     
 FLD .                   WILDCAT:        FIELD    
 LOC .              14  18N   5W:        LOCATION   
 CNTY.               NORTH SLOPE:        COUNTY  
 STAT.                    ALASKA:        STATE   
 CTRY.                       USA:        COUNTRY 
 DATE.                   5/11/79:        LOG DATE 
 API .              502792000600:        UNIQUE WELL IDENTIFIER 
 OPER. USGS/HUSKY N.P.R. OPS., I:        OPERATOR  
 SRVC.             Dresser Atlas:        SERVICE COMPANY 
 UWI .              502792000600:        UNIQUE WELL ID 
 LAT .                    0.0000:        LATITUDE
 LON .                    0.0000:        LONGITUDE
 DIGS.          Center Line Data:        DIGITIZING COMPANY 
~CURVE INFORMATION      
#MNEM.UNIT            API CODE           CURVE DESCRIPTION
#---------          -------------        ------------------------------
 DEPT.F                         :        1  DEPTH
 SP  .MV                        :        2
 ILD .OHMM                      :        3
 ILM .OHMM                      :        4
 FR  .OHMM                      :        5
 RHOB.G/C3                      :        6
 DRHO.G/C3                      :        7
 GR  .GAPI                      :        8
 CALI.IN                        :        9
 NPHI.%                         :       10
 DT  .US/F                      :       11
~PARAMETER INFORMATION       
~OTHER INFORMATION
~A 
# ...
    116.00000    -74.98300     45.69320      8.39640     31.58970   -999.00000   -999.00000     50.37680   -999.00000   -999.00000    160.97211
    116.50000    -75.59410     44.75910      8.31080     31.35460   -999.00000   -999.00000     51.11410   -999.00000   -999.00000    160.84129
    117.00000    -76.11690     43.57000      8.22620     31.33300   -999.00000   -999.00000     51.76820   -999.00000   -999.00000    161.03410
    117.50000    -76.39580     42.28690      8.21900     31.18510   -999.00000   -999.00000     52.17740   -999.00000   -999.00000    161.43460
    118.00000    -76.89810     40.52260      8.23610     31.02120   -999.00000   -999.00000     51.90010   -999.00000   -999.00000    161.46800
    118.50000    -77.45070     39.07710      8.13890     30.85160   -999.00000   -999.00000     51.40730   -999.00000   -999.00000    161.41550
    119.00000    -77.66330     37.69250      8.05280     30.41540   -999.00000   -999.00000     50.86970   -999.00000   -999.00000    161.42450
    119.50000    -77.46070     36.58390      7.97010     30.14530   -999.00000   -999.00000     50.35690   -999.00000   -999.00000    160.96899
    120.00000    -77.72700     35.48730      7.86140     30.06920   -999.00000   -999.00000     49.83730   -999.00000   -999.00000    160.65140
    120.50000    -78.45040     34.44310      7.73850     30.32630   -999.00000   -999.00000     49.31460   -999.00000   -999.00000    160.07899
    121.00000    -78.71250     33.67020      7.63160     30.02370   -999.00000   -999.00000     48.79180   -999.00000   -999.00000    159.83611
    121.50000    -78.79210     33.06950      7.53790     29.97290   -999.00000   -999.00000     48.26910   -999.00000   -999.00000    159.81509
    122.00000    -79.02800     32.57130      7.52670     29.91970   -999.00000   -999.00000     47.74630   -999.00000   -999.00000    160.31970
    122.50000    -79.48630     32.73920      7.53220     29.86650   -999.00000   -999.00000     47.05990   -999.00000   -999.00000    160.44521
    123.00000    -79.30780     33.05400      7.56960     29.81340   -999.00000   -999.00000     46.76910   -999.00000   -999.00000    160.31960
    123.50000    -79.40050     34.17050      7.60950     29.66330   -999.00000   -999.00000     46.44140   -999.00000   -999.00000    160.28220
    124.00000    -79.97380     35.50410      7.69940     29.45970   -999.00000   -999.00000     46.13030   -999.00000   -999.00000    160.25490
    124.50000    -80.63120     37.51410      7.81160     29.18790   -999.00000   -999.00000     46.03960   -999.00000   -999.00000    159.75450
    125.00000    -80.76000     39.29600      7.95740     28.91940   -999.00000   -999.00000     46.24790   -999.00000   -999.00000    159.49780
    125.50000    -81.49730     41.26580      8.10590     28.86310   -999.00000   -999.00000     46.45620   -999.00000   -999.00000    159.60500
    126.00000    -82.45190     44.55940      8.25720     28.68750   -999.00000   -999.00000     46.98680   -999.00000   -999.00000    159.56441
    126.50000    -82.95440     48.68070      8.43380     28.34680   -999.00000   -999.00000     47.78760   -999.00000   -999.00000    159.63100
    127.00000    -82.88430     52.13860      8.67280     28.28040   -999.00000   -999.00000     49.08520   -999.00000   -999.00000    159.60989
    127.50000    -82.76240     54.37870      8.87620     28.58970   -999.00000   -999.00000     50.18490   -999.00000   -999.00000    159.49879
    128.00000    -82.74180     57.09820      9.17610     29.13800   -999.00000   -999.00000     51.18210   -999.00000   -999.00000    159.26320
    128.50000    -83.19040     60.01710      9.49210     29.43310   -999.00000   -999.00000     51.53050   -999.00000   -999.00000    159.22079
    129.00000    -83.56520     62.73330      9.50330     29.12740   -999.00000   -999.00000     51.30420   -999.00000   -999.00000    159.28700
    129.50000    -83.62790     64.91960      9.50540     28.83450   -999.00000   -999.00000     51.26420   -999.00000   -999.00000    159.49471
    130.00000    -83.46970     65.24390      9.49490     28.53230   -999.00000   -999.00000     50.31060   -999.00000   -999.00000    159.66029
    130.50000    -83.36580     65.46820      9.50510     28.34270   -999.00000   -999.00000     50.26340   -999.00000   -999.00000    160.01430
    131.00000    -83.84980     59.35700      9.54200     28.37840   -999.00000   -999.00000     50.59300   -999.00000   -999.00000    160.18159
    131.50000    -83.93350     51.72860      9.45440     28.29050   -999.00000   -999.00000     51.43940   -999.00000   -999.00000    160.35451
    132.00000    -83.66090     45.94000      9.24990     27.94690   -999.00000   -999.00000     52.35250   -999.00000   -999.00000    160.43150
    132.50000    -83.39850     40.93320      9.01390     27.67040   -999.00000   -999.00000     53.15720   -999.00000   -999.00000    160.18880
    133.00000    -83.24320     39.91660      8.76580     27.60310   -999.00000   -999.00000     53.62340   -999.00000   -999.00000    160.19640
    133.50000    -83.37490     38.32090      8.39460     27.59880   -999.00000   -999.00000     53.98140   -999.00000   -999.00000    160.05901
    134.00000    -83.56390     38.56360      8.06360     27.40620   -999.00000   -999.00000     54.55010   -999.00000   -999.00000    159.45590
    134.50000    -83.89400     39.26110      7.88370     27.05490   -999.00000   -999.00000     55.17920   -999.00000   -999.00000    159.41080
    135.00000    -84.55280     39.96270      7.84230     26.82850   -999.00000   -999.00000     55.36810   -999.00000   -999.00000    159.31700
    135.50000    -85.10370     39.75690      7.88480     26.50200   -999.00000   -999.00000     55.50820   -999.00000   -999.00000    159.55209
    136.00000    -85.73540     38.82310      7.86480     26.23170   -999.00000   -999.00000     55.87580   -999.00000   -999.00000    159.52780
    136.50000    -86.34380     35.87350      7.87030     26.09550   -999.00000   -999.00000     56.06690   -999.00000   -999.00000    159.36290
    137.00000    -86.32510     33.44430      7.87570     25.94940   -999.00000   -999.00000     55.92460   -999.00000   -999.00000    159.27290
    137.50000    -86.28800     31.15610      7.67770     25.56590   -999.00000   -999.00000     55.72370   -999.00000   -999.00000    159.36301
    138.00000    -86.94200     28.92660      7.40800     24.94940   -999.00000   -999.00000     55.02590   -999.00000   -999.00000    159.32651
    138.50000    -87.47100     27.54220      7.13760     24.40600   -999.00000   -999.00000     53.74500   -999.00000   -999.00000    159.63060
    139.00000    -87.35150     27.60190      6.87710     24.19630   -999.00000   -999.00000     52.54720   -999.00000   -999.00000    159.70090
    139.50000    -87.28100     28.48490      6.65270     24.10840   -999.00000   -999.00000     51.83900   -999.00000   -999.00000    159.63181
    140.00000    -87.05500     30.55720      6.65210     23.80030   -999.00000   -999.00000     50.70680   -999.00000   -999.00000    159.55710
    140.50000    -86.90610     31.41550      6.90370     23.47570   -999.00000   -999.00000     49.62980   -999.00000   -999.00000    159.51720
    141.00000    -87.05290     30.90520      7.21030     23.25610   -999.00000   -999.00000     48.99010   -999.00000   -999.00000    159.69521
    141.50000    -87.27640     30.29060      7.66980     23.02620   -999.00000   -999.00000     47.58980   -999.00000   -999.00000    159.62340
    142.00000    -87.46920     27.67170      8.10790     22.79610   -999.00000   -999.00000     46.09900   -999.00000   -999.00000    159.55170
    142.50000    -87.47080     24.54630      8.36210     22.56820   -999.00000   -999.00000     44.81660   -999.00000   -999.00000    159.94380
    143.00000    -87.33920     21.93230      8.17300     22.07200   -999.00000   -999.00000     43.90950   -999.00000   -999.00000    159.73630
    143.50000    -87.11370     19.59660      7.62710     21.41500   -999.00000   -999.00000     42.60270   -999.00000   -999.00000    159.37460
