~VERSION INFORMATION
 VERS.                      2.00:        CWLS LOG ASCII STANDARD - VERSION 2.00
 WRAP.                        NO:        ONE LINE PER DEPTH STEP
~WELL INFORMATION
#MNEM.UNIT               DATA            INFORMATION
#----------          ------------        ------------------------------
 STRT.F                  32.0000:        START DEPTH
 STOP.F                9360.0000:        STOP DEPTH
 STEP.F                   0.5000:        STEP VALUE
 NULL.                 -999.2500:        NULL VALUE
 COMP. USGS/HUSKY N.P.R. OPS., I:        COMPANY  
 WELL.            J.W. DALTON #1:        WELL     
 FLD .                   WILDCAT:        FIELD    
 LOC .              14  18N   5W:        LOCATION   
 CNTY.               NORTH SLOPE:        COUNTY  
 STAT.                    ALASKA:        STATE   
 CTRY.                       USA:        COUNTRY 
 DATE.                   5/11/79:        LOG DATE 
 API .              502792000600:        UNIQUE WELL IDENTIFIER 
 OPER. USGS/HUSKY N.P.R. OPS., I:        OPERATOR  
 SRVC.             Dresser Atlas:        SERVICE COMPANY 
 UWI .              502792000600:        UNIQUE WELL ID 
 LAT .                    0.0000:        LATITUDE
 LON .                    0.0000:        LONGITUDE
 DIGS.          Center Line Data:        DIGITIZING COMPANY 
~CURVE INFORMATION      
#MNEM.UNIT            API CODE           CURVE DESCRIPTION
#---------          -------------        ------------------------------
 DEPT.F                         :        1  DEPTH
 SP  .MV                        :        2
 ILD .OHMM                      :        3
 ILM .OHMM                      :        4
 FR  .OHMM                      :        5
 RHOB.G/C3                      :        6
 DRHO.G/C3                      :        7
 GR  .GAPI                      :        8
 CALI.IN                        :        9
 NPHI.%                         :       10
 DT  .US/F                      :       11
~PARAMETER INFORMATION       
~OTHER INFORMATION
~A 
# ...
   6248.00000    -77.30070      3.94870      4.30160      4.40600      2.38720      0.13880     95.76290     15.44370     33.98390     82.88170
   6248.50000    -77.38460      4.05500      4.37410      4.43110      2.37910      0.14750     94.83230     15.45170     34.05700     82.12650
   6249.00000    -77.35700      4.12020      4.42610      4.51770      2.39030      0.17410     95.32360     15.46070     33.78180     81.68600
   6249.50000    -77.30650      4.15460      4.44530      4.71790      2.40530      0.20070     95.78450     15.44270     33.11130     81.21080
   6250.00000    -77.23260      4.16970      4.46450      4.80700      2.42470      0.19980     95.65610     15.38060     33.09170     81.25430
   6250.50000    -77.19670      4.17800      4.48120      4.82160      2.44030      0.18560     94.25540     15.46420     33.42150     81.63990
   6251.00000    -77.18570      4.17850      4.49670      4.78230      2.43740      0.17200     92.51600     15.50410     33.75140     81.82410
   6251.50000    -77.30410      4.17980      4.51460      4.70530      2.43100      0.16010     92.73710     15.56980     33.46060     81.36180
   6252.00000    -77.41460      4.18110      4.52150      4.64970      2.44680      0.16700     92.68330     15.60930     33.14720     80.63790
   6252.50000    -77.46210      4.18250      4.52450      4.60180      2.45070      0.17620     91.79330     15.62000     32.83380     80.18880
   6253.00000    -77.43350      4.18380      4.52750      4.59520      2.44790      0.17660     93.33190     15.59320     32.52040     79.97390
   6253.50000    -77.55750      4.18510      4.53050      4.66180      2.45110      0.18280     93.39100     15.58700     32.85460     79.73780
   6254.00000    -77.95450      4.18640      4.53350      4.74010      2.47620      0.18820     92.91980     15.62210     33.03300     79.40080
   6254.50000    -77.97950      4.18780      4.53660      4.74880      2.49220      0.19320     95.76230     15.60520     32.93440     78.98590
   6255.00000    -77.86190      4.18910      4.53960      4.74880      2.49550      0.19640     96.16530     15.58550     32.49760     78.75520
   6255.50000    -77.82420      4.19040      4.54260      4.73280      2.49780      0.19370     95.12600     15.57170     32.41300     78.59140
   6256.00000    -78.36620      4.19170      4.54560      4.70680      2.49090      0.18810     93.14660     15.57950     32.66720     78.79960
   6256.50000    -78.54830      4.19310      4.54870      4.68100      2.47350      0.18060     94.24950     15.60370     33.09650     79.33580
   6257.00000    -78.39780      4.19440      4.55170      4.65730      2.45610      0.17090     94.66080     15.62460     33.09970     79.84770
   6257.50000    -78.28150      4.19570      4.55470      4.66290      2.43340      0.16200     93.81140     15.60320     32.57330     80.08300
   6258.00000    -78.52480      4.19700      4.55780      4.67040      2.42700      0.17300     92.75310     15.64670     32.32970     80.40860
   6258.50000    -78.95420      4.19840      4.56080      4.67790      2.44350      0.18400     91.14450     15.64280     32.31540     80.83820
   6259.00000    -78.53450      4.19970      4.56380      4.68840      2.44670      0.19500     92.33040     15.55190     32.36800     81.50650
   6259.50000    -78.20190      4.20100      4.56690      4.70330      2.45190      0.20570     94.37220     15.53100     32.26400     82.21370
   6260.00000    -78.40600      4.20240      4.56390      4.71830      2.45580      0.20630     94.44780     15.57020     32.56450     83.00610
   6260.50000    -78.30580      4.20280      4.55830      4.70900      2.45760      0.20000     93.65790     15.59170     33.09360     83.71040
   6261.00000    -77.94730      4.20150      4.55270      4.68830      2.45470      0.19060     92.74250     15.60380     33.65510     83.00310
   6261.50000    -78.36660      4.20020      4.54710      4.63400      2.44150      0.17770     92.59460     15.60130     33.13840     81.52820
   6262.00000    -78.03770      4.19880      4.54150      4.55050      2.43200      0.16780     93.15030     15.56990     32.20090     80.55220
   6262.50000    -77.69320      4.19750      4.53600      4.52640      2.43910      0.18580     93.73900     15.54540     32.46190     80.13480
   6263.00000    -77.59330      4.19620      4.53040      4.65650      2.45330      0.20210     93.50330     15.52720     33.05890     79.89790
   6263.50000    -77.52240      4.19480      4.52480      4.75160      2.46410      0.20460     92.77640     15.52190     33.84990     80.27340
   6264.00000    -77.53350      4.19350      4.51930      4.75600      2.46800      0.21100     91.66720     15.57010     33.89070     81.27300
   6264.50000    -77.48300      4.19220      4.51480      4.73610      2.46790      0.20200     94.77230     15.47130     33.77820     82.09820
   6265.00000    -77.27950      4.19090      4.51380      4.68990      2.46750      0.20070     94.32080     15.45850     33.88290     82.30700
   6265.50000    -77.07660      4.18950      4.51290      4.63750      2.45400      0.19180     93.83650     15.45140     34.04110     82.31930
   6266.00000    -76.88860      4.18820      4.51190      4.61750      2.43110      0.17010     93.33600     15.46230     33.75840     81.56650
   6266.50000    -76.89700      4.18690      4.51090      4.59760      2.42930      0.15360     93.42810     15.65740     33.44480     80.36000
   6267.00000    -77.01820      4.18560      4.51000      4.57890      2.43140      0.13770     95.76420     15.76310     33.41890     80.26050
   6267.50000    -77.13470      4.18420      4.50900      4.56380      2.43580      0.12680     96.62270     15.83200     33.06120     81.27920
   6268.00000    -77.20090      4.18290      4.50800      4.56170      2.44350      0.12580     94.95610     15.82340     32.38520     82.08290
   6268.50000    -77.23820      4.18160      4.50710      4.55250      2.45390      0.13950     93.33190     15.85500     31.79520     82.39830
   6269.00000    -77.21440      4.18030      4.50610      4.55860      2.45760      0.15330     92.60020     15.86000     31.39940     82.49230
   6269.50000    -77.15300      4.17900      4.50520      4.60930      2.45870      0.16700     92.05320     15.85570     32.01970     82.02090
   6270.00000    -77.44580      4.17280      4.50420      4.68280      2.46830      0.17490     92.17150     15.85130     33.11470     81.30090
   6270.50000    -76.66390      4.15840      4.50330      4.67180      2.48220      0.16590     92.58530     15.84700     33.55280     80.87040
   6271.00000    -76.55420      4.14400      4.50230      4.65870      2.47080      0.15930     92.56640     15.84260     33.53580     80.95440
   6271.50000    -76.89450      4.12960      4.50130      4.66370      2.45180      0.15260     92.21680     15.83540     32.31320     81.15400
   6272.00000    -76.95020      4.11530      4.48840      4.68590      2.43970      0.15610     92.06490     15.77190     31.41700     81.53050
   6272.50000    -77.01770      4.10110      4.47250      4.66390      2.45320      0.16640     91.91620     15.71830     31.89950     82.03630
   6273.00000    -77.14770      4.08690      4.45670      4.61500      2.47310      0.17660     93.04670     15.66470     32.28490     82.38180
   6273.50000    -77.23660      4.07280      4.44100      4.52920      2.48410      0.18410     94.90590     15.61110     33.15810     82.62450
   6274.00000    -77.09570      4.05870      4.42530      4.43530      2.46580      0.16860     96.53670     15.51730     33.86650     82.07290
   6274.50000    -77.00900      4.04460      4.40970      4.38800      2.44880      0.15240     96.34140     15.46890     34.07230     80.64250
   6275.00000    -77.08690      4.03790      4.39410      4.43610      2.42900      0.14720     96.24610     15.43740     34.05400     78.61160
   6275.50000    -77.12990      4.06450      4.39300      4.66880      2.43490      0.16050     94.83030     15.40650     33.90130     78.19780
