~VERSION INFORMATION
 VERS.                      2.00:        CWLS LOG ASCII STANDARD - VERSION 2.00
 WRAP.                        NO:        ONE LINE PER DEPTH STEP
~WELL INFORMATION
#MNEM.UNIT               DATA            INFORMATION
#----------          ------------        ------------------------------
 STRT.F                  32.0000:        START DEPTH
 STOP.F                9360.0000:        STOP DEPTH
 STEP.F                   0.5000:        STEP VALUE
 NULL.                 -999.2500:        NULL VALUE
 COMP. USGS/HUSKY N.P.R. OPS., I:        COMPANY  
 WELL.            J.W. DALTON #1:        WELL     
 FLD .                   WILDCAT:        FIELD    
 LOC .              14  18N   5W:        LOCATION   
 CNTY.               NORTH SLOPE:        COUNTY  
 STAT.                    ALASKA:        STATE   
 CTRY.                       USA:        COUNTRY 
 DATE.                   5/11/79:        LOG DATE 
 API .              502792000600:        UNIQUE WELL IDENTIFIER 
 OPER. USGS/HUSKY N.P.R. OPS., I:        OPERATOR  
 SRVC.             Dresser Atlas:        SERVICE COMPANY 
 UWI .              502792000600:        UNIQUE WELL ID 
 LAT .                    0.0000:        LATITUDE
 LON .                    0.0000:        LONGITUDE
 DIGS.          Center Line Data:        DIGITIZING COMPANY 
~CURVE INFORMATION      
#MNEM.UNIT            API CODE           CURVE DESCRIPTION
#---------          -------------        ------------------------------
 DEPT.F                         :        1  DEPTH
 SP  .MV                        :        2
 ILD .OHMM                      :        3
 ILM .OHMM                      :        4
 FR  .OHMM                      :        5
 RHOB.G/C3                      :        6
 DRHO.G/C3                      :        7
 GR  .GAPI                      :        8
 CALI.IN                        :        9
 NPHI.%                         :       10
 DT  .US/F                      :       11
~PARAMETER INFORMATION       
~OTHER INFORMATION
~A 
# ...
   3812.00000    -49.22950      2.96530      3.19590      3.24410      2.21400      0.24730     81.30480     15.65360     41.21420    117.45560
   3812.50000    -49.27070      2.94650      3.17910      3.23450      2.20510      0.24660     81.38780     15.62310     42.16460    116.93180
   3813.00000    -49.02890      2.91910      3.14950      3.22490      2.19630      0.22920     81.96270     15.59270     42.91950    116.77120
   3813.50000    -48.81150      2.89190      3.12020      3.22070      2.19120      0.21190     82.39250     15.57290     42.50230    116.44350
   3814.00000    -48.72510      2.86500      3.09120      3.22070      2.20220      0.19450     81.12290     15.57290     42.04260    115.53210
   3814.50000    -48.54350      2.83840      3.06250      3.21650      2.21360      0.17940     80.76270     15.57290     41.30240    114.10610
   3815.00000    -48.18630      2.85280      3.08230      3.21070      2.22110      0.16830     82.97740     15.57290     40.25060    112.33730
   3815.50000    -48.00160      2.88970      3.12210      3.20480      2.23550      0.16450     84.75380     15.64100     40.22040    111.10700
   3816.00000    -48.23990      2.92700      3.16250      3.20610      2.22040      0.15250     84.89500     15.81910     40.95500    109.42790
   3816.50000    -48.29040      2.96490      3.20330      3.21200      2.18800      0.15070     85.43930     15.96170     41.89150    108.58690
   3817.00000    -48.13010      3.00320      3.24470      3.23500      2.16080      0.15940     85.21230     16.00700     42.70250    108.87580
   3817.50000    -48.00370      3.04200      3.28670      3.27260      2.17790      0.17170     86.69840     16.03540     43.46330    109.35570
   3818.00000    -47.98120      3.07420      3.31430      3.31070      2.19500      0.20780     87.47160     16.05200     44.12340    109.73540
   3818.50000    -48.05080      3.09430      3.33600      3.34920      2.18280      0.21450     87.63260     16.03020     43.67620    109.99130
   3819.00000    -48.27400      3.11460      3.35780      3.40000      2.15690      0.20430     84.94210     16.00640     43.16360    110.10410
   3819.50000    -48.49730      3.13490      3.37970      3.43350      2.13250      0.19500     82.17500     15.78560     42.62540    110.01720
   3820.00000    -48.72050      3.15550      3.40180      3.42260      2.14450      0.22150     81.89760     15.64960     43.52890    109.48840
   3820.50000    -50.17590      3.17610      3.42400      3.41100      2.15860      0.19330     81.48540     15.56180     43.97320    108.80770
   3821.00000    -50.33520      3.19690      3.44630      3.39870      2.16190      0.16200     81.38660     15.51750     43.34850    107.79620
   3821.50000    -50.03650      3.21780      3.46880      3.38550      2.16150      0.13080     80.57390     15.51690     42.80050    106.29830
   3822.00000    -49.83020      3.23890      3.50250      3.36720      2.16740      0.10100     80.38480     15.53240     42.23540    104.58500
   3822.50000    -49.76420      3.26780      3.55930      3.35500      2.17520      0.10310     81.98310     15.60240     41.49010    102.82830
   3823.00000    -49.81700      3.30630      3.61700      3.38290      2.18130      0.10660     83.27290     15.70340     40.49050    100.57560
   3823.50000    -49.11520      3.34930      3.68090      3.48680      2.20110      0.11360     80.85280     15.75130     39.53530    100.09080
   3824.00000    -48.06890      3.39510      3.79270      3.69450      2.22100      0.12060     79.92460     15.89810     39.51330    100.10150
   3824.50000    -46.77130      3.44140      3.90780      3.87240      2.24080      0.13150     79.68680     15.92560     39.93710     99.60130
   3825.00000    -46.81350      3.51340      4.01510      3.93010      2.26070      0.14620     79.65080     15.94640     40.30870     98.16650
   3825.50000    -47.23240      3.57060      4.13830      3.95250      2.28050      0.16350     79.49220     15.94750     40.53640     95.86410
   3826.00000    -47.41040      3.50840      4.28020      3.94670      2.30030      0.18340     76.88500     15.92270     40.18040     93.86840
   3826.50000    -46.88820      3.50390      4.62440      3.94990      2.30710      0.20330     74.99620     15.75080     40.30650     91.99000
   3827.00000    -46.08620      3.72720      4.80290      4.05580      2.27800      0.23140     74.78010     15.56340     40.80900     90.81580
   3827.50000    -45.66250      3.92920      4.92730      4.20790      2.24420      0.23190     74.23380     15.37610     40.21750     93.10090
   3828.00000    -45.67210      3.98720      4.93900      4.39620      2.24040      0.20350     74.46110     15.18870     39.41690     96.80000
   3828.50000    -45.88730      4.02470      4.94340      4.73100      2.29830      0.16670     74.36660     15.02630     38.94110     98.88140
   3829.00000    -46.53010      4.04740      4.94780      4.81590      2.35610      0.12990     73.07060     14.93650     38.51390     97.60590
   3829.50000    -47.99530      4.01810      4.91360      4.60390      2.41390      0.11030     70.92800     14.96710     38.27840     95.58770
   3830.00000    -49.65340      3.98820      4.86460      4.30400      2.37680      0.10560     68.64500     15.07830     38.45190     93.58710
   3830.50000    -51.19700      3.94910      4.83980      4.07970      2.29650      0.15100     67.01840     15.24370     38.71210     91.80130
   3831.00000    -52.74070      3.89410      4.81940      3.99750      2.30100      0.20280     67.79510     15.40330     38.31540     90.07270
   3831.50000    -54.15440      3.81110      4.79760      3.97410      2.30150      0.23680     68.77430     15.51320     38.12010     90.90420
   3832.00000    -56.26550      3.74120      4.77490      4.17230      2.27950      0.23160     69.03340     15.54810     38.42710     93.85560
   3832.50000    -59.43200      3.69960      4.74180      4.89160      2.24850      0.22650     67.67600     15.58550     38.84100     97.60210
   3833.00000    -61.30580      3.70700      4.70670      5.59780      2.25900      0.22510     66.36700     15.60010     38.78720     99.83650
   3833.50000    -60.77070      3.73510      4.67190      5.54900      2.29080      0.22680     65.18140     15.52120     38.02280    102.50590
   3834.00000    -57.45500      3.77030      4.63740      4.98370      2.31030      0.25080     63.31880     14.77350     37.28730    103.43020
   3834.50000    -54.03460      3.79590      4.60210      4.35180      2.30990      0.27600     62.17100     14.26560     36.45890    101.78640
   3835.00000    -51.44010      3.80270      4.56440      4.04040      2.31940      0.28790     61.29630     14.24300     35.88520     99.23310
   3835.50000    -49.60380      3.79200      4.52700      4.00130      2.32450      0.28090     64.05990     14.23950     35.64420     99.22460
   3836.00000    -49.02970      3.77640      4.48990      4.04800      2.32440      0.23970     68.76040     14.31070     37.11110    100.91240
   3836.50000    -48.94320      3.76090      4.42840      4.18980      2.32800      0.19850     70.93220     14.38190     37.98630    103.03010
   3837.00000    -49.38230      3.74550      4.36280      4.27400      2.32680      0.15730     72.55760     14.41750     38.34640    103.55270
   3837.50000    -49.34300      3.73010      4.28840      4.23340      2.31830      0.11610     74.39220     14.45690     38.81680    104.20210
   3838.00000    -49.20860      3.71470      4.17310      4.09040      2.30170      0.09240     75.68630     14.57230     39.53960    104.75140
   3838.50000    -49.26730      3.70020      4.07470      3.94070      2.27510      0.12700     74.33570     14.80010     40.45500    105.22460
   3839.00000    -49.40530      3.68960      4.00690      3.79660      2.27300      0.17090     73.18570     15.08120     41.46980    105.72260
   3839.50000    -49.78380      3.67900      3.97180      3.68960      2.27350      0.21480     72.25160     15.27720     41.70820    105.70090
