~VERSION INFORMATION
 VERS.                      2.00:        CWLS LOG ASCII STANDARD - VERSION 2.00
 WRAP.                        NO:        ONE LINE PER DEPTH STEP
~WELL INFORMATION
#MNEM.UNIT               DATA            INFORMATION
#----------          ------------        ------------------------------
 STRT.F                  32.0000:        START DEPTH
 STOP.F                9360.0000:        STOP DEPTH
 STEP.F                   0.5000:        STEP VALUE
 NULL.                 -999.2500:        NULL VALUE
 COMP. USGS/HUSKY N.P.R. OPS., I:        COMPANY  
 WELL.            J.W. DALTON #1:        WELL     
 FLD .                   WILDCAT:        FIELD    
 LOC .              14  18N   5W:        LOCATION   
 CNTY.               NORTH SLOPE:        COUNTY  
 STAT.                    ALASKA:        STATE   
 CTRY.                       USA:        COUNTRY 
 DATE.                   5/11/79:        LOG DATE 
 API .              502792000600:        UNIQUE WELL IDENTIFIER 
 OPER. USGS/HUSKY N.P.R. OPS., I:        OPERATOR  
 SRVC.             Dresser Atlas:        SERVICE COMPANY 
 UWI .              502792000600:        UNIQUE WELL ID 
 LAT .                    0.0000:        LATITUDE
 LON .                    0.0000:        LONGITUDE
 DIGS.          Center Line Data:        DIGITIZING COMPANY 
~CURVE INFORMATION      
#MNEM.UNIT            API CODE           CURVE DESCRIPTION
#---------          -------------        ------------------------------
 DEPT.F                         :        1  DEPTH
 SP  .MV                        :        2
 ILD .OHMM                      :        3
 ILM .OHMM                      :        4
 FR  .OHMM                      :        5
 RHOB.G/C3                      :        6
 DRHO.G/C3                      :        7
 GR  .GAPI                      :        8
 CALI.IN                        :        9
 NPHI.%                         :       10
 DT  .US/F                      :       11
~PARAMETER INFORMATION       
~OTHER INFORMATION
~A 
# ...
    732.00000    -76.51190     16.65040      5.36780      7.86080   -999.00000   -999.00000     39.96670   -999.00000   -999.00000    158.29111
    732.50000    -77.33160     17.17810      5.45970      7.91230   -999.00000   -999.00000     40.37960   -999.00000   -999.00000    158.74480
    733.00000    -77.52140     17.15140      5.51480      7.89290   -999.00000   -999.00000     40.85580   -999.00000   -999.00000    158.54939
    733.50000    -77.56850     17.12640      5.57370      7.82500   -999.00000   -999.00000     40.75360   -999.00000   -999.00000    158.51270
    734.00000    -77.40280     17.18510      5.63960      7.75180   -999.00000   -999.00000     40.17430   -999.00000   -999.00000    158.54871
    734.50000    -77.16840     17.04750      5.71460      7.67130   -999.00000   -999.00000     39.48050   -999.00000   -999.00000    158.62770
    735.00000    -77.25460     16.50970      5.79700      7.57780   -999.00000   -999.00000     38.82760   -999.00000   -999.00000    158.91150
    735.50000    -77.08980     15.44650      5.88050      7.50700   -999.00000   -999.00000     37.95620   -999.00000   -999.00000    159.13989
    736.00000    -76.19750     12.26760      5.98750      7.39650   -999.00000   -999.00000     37.30610   -999.00000   -999.00000    159.04660
    736.50000    -74.90580      9.17380      6.00110      7.18040   -999.00000   -999.00000     36.78610   -999.00000   -999.00000    158.87289
    737.00000    -73.63070      6.99110      5.91530      6.97700   -999.00000   -999.00000     36.44870   -999.00000   -999.00000    158.65379
    737.50000    -72.68860      5.66730      5.34280      6.81850   -999.00000   -999.00000     36.23820   -999.00000   -999.00000    158.65680
    738.00000    -70.78020      4.70940      4.52590      6.54930   -999.00000   -999.00000     36.63330   -999.00000   -999.00000    158.05161
    738.50000    -68.18770      4.11170      3.82230      6.21440   -999.00000   -999.00000     36.97830   -999.00000   -999.00000    158.96710
    739.00000    -65.51010      4.06250      3.20330      5.89670   -999.00000   -999.00000     36.89860   -999.00000   -999.00000    158.60339
    739.50000    -63.85320      3.95830      2.77400      5.62380   -999.00000   -999.00000     36.88510   -999.00000   -999.00000    159.22690
    740.00000    -63.36930      3.96980      2.68160      5.86910   -999.00000   -999.00000     37.36040   -999.00000   -999.00000    159.76311
    740.50000    -63.66170      4.28440      2.76530      6.08950   -999.00000   -999.00000     38.19570   -999.00000   -999.00000    159.57249
    741.00000    -64.36200      4.81960      2.93760      6.15590   -999.00000   -999.00000     39.25100   -999.00000   -999.00000    159.08900
    741.50000    -65.25780      6.24020      3.13390      6.42390   -999.00000   -999.00000     40.85810   -999.00000   -999.00000    158.77380
    742.00000    -67.55730      8.03440      3.69510      6.76460   -999.00000   -999.00000     42.57000   -999.00000   -999.00000    158.67641
    742.50000    -70.63910     10.24080      4.35800      6.98960   -999.00000   -999.00000     44.07590   -999.00000   -999.00000    158.48790
    743.00000    -72.37320     13.71700      4.97310      7.44280   -999.00000   -999.00000     45.61910   -999.00000   -999.00000    158.66550
    743.50000    -73.41790     16.53090      5.59450      7.84570   -999.00000   -999.00000     46.80480   -999.00000   -999.00000    158.83690
    744.00000    -74.19820     21.05350      6.16880      8.19170   -999.00000   -999.00000     47.53390   -999.00000   -999.00000    160.64931
    744.50000    -75.09650     26.35270      6.77340      8.48650   -999.00000   -999.00000     47.62200   -999.00000   -999.00000    168.32700
    745.00000    -75.57800     31.13900      7.04900      8.68610   -999.00000   -999.00000     46.84580   -999.00000   -999.00000    163.42461
    745.50000    -75.87260     34.21530      7.30950      8.82030   -999.00000   -999.00000     45.94010   -999.00000   -999.00000    158.86380
    746.00000    -75.55480     35.31570      7.48160      8.89350   -999.00000   -999.00000     44.46830   -999.00000   -999.00000    158.98770
    746.50000    -74.48790     36.47440      7.72790      8.93040   -999.00000   -999.00000     42.92370   -999.00000   -999.00000    159.06740
    747.00000    -73.47330     39.33900      7.84050      8.96750   -999.00000   -999.00000     42.22110   -999.00000   -999.00000    159.11760
    747.50000    -73.55130     41.25020      7.95480      9.00470   -999.00000   -999.00000     41.63500   -999.00000   -999.00000    159.02420
    748.00000    -73.68900     38.27500      8.10210      9.04210   -999.00000   -999.00000     41.48090   -999.00000   -999.00000    158.67360
    748.50000    -73.59160     30.71910      8.29700      9.05210   -999.00000   -999.00000     41.40870   -999.00000   -999.00000    158.41910
    749.00000    -73.08430     21.79340      8.43770      9.05210   -999.00000   -999.00000     42.05630   -999.00000   -999.00000    158.18719
    749.50000    -72.64290     16.05420      8.33840      8.75070   -999.00000   -999.00000     42.50080   -999.00000   -999.00000    157.03329
    750.00000    -71.34000     11.45060      8.03420      8.09020   -999.00000   -999.00000     42.43510   -999.00000   -999.00000    150.61011
    750.50000    -70.03700      7.80780      7.18320      7.40500   -999.00000   -999.00000     43.57270   -999.00000   -999.00000    152.46021
    751.00000    -67.79160      6.52770      6.08230      6.77780   -999.00000   -999.00000     43.61460   -999.00000   -999.00000    158.45810
    751.50000    -64.49690      5.47960      5.03860      6.25960   -999.00000   -999.00000     43.41560   -999.00000   -999.00000    158.46780
    752.00000    -62.13170      4.59980      4.25320      6.04230   -999.00000   -999.00000     43.38070   -999.00000   -999.00000    158.37131
    752.50000    -60.75300      4.03630      3.25880      5.93310   -999.00000   -999.00000     43.65040   -999.00000   -999.00000    158.29260
    753.00000    -59.68640      3.97570      2.92770      5.88780   -999.00000   -999.00000     44.25480   -999.00000   -999.00000    158.07860
    753.50000    -59.21040      4.05110      2.71790      5.88960   -999.00000   -999.00000     44.92430   -999.00000   -999.00000    158.14490
    754.00000    -60.07740      4.53180      2.70210      5.92730   -999.00000   -999.00000     46.47290   -999.00000   -999.00000    158.66510
    754.50000    -61.76450      5.16130      2.80420      6.12960   -999.00000   -999.00000     48.80210   -999.00000   -999.00000    158.66020
    755.00000    -64.21440      6.45480      3.12170      6.38160   -999.00000   -999.00000     51.18030   -999.00000   -999.00000    158.61320
    755.50000    -67.00500      8.15500      3.61360      7.06610   -999.00000   -999.00000     53.59810   -999.00000   -999.00000    159.20210
    756.00000    -69.53030     11.10940      4.33790      7.85520   -999.00000   -999.00000     56.29850   -999.00000   -999.00000    167.73990
    756.50000    -71.68760     15.43630      5.21820      8.70800   -999.00000   -999.00000     59.29900   -999.00000   -999.00000    175.31841
    757.00000    -73.36570     19.45110      6.30820      9.33340   -999.00000   -999.00000     60.67860   -999.00000   -999.00000    159.58389
    757.50000    -74.61280     22.08350      7.12300      9.68800   -999.00000   -999.00000     60.73670   -999.00000   -999.00000    159.07420
    758.00000    -75.10340     21.87260      7.54070      9.81190   -999.00000   -999.00000     59.46220   -999.00000   -999.00000    158.60561
    758.50000    -75.27940     20.49550      7.25120      9.87060   -999.00000   -999.00000     56.38020   -999.00000   -999.00000    158.31310
    759.00000    -75.01320     18.99220      6.93610      9.86740   -999.00000   -999.00000     52.93330   -999.00000   -999.00000    157.65430
    759.50000    -74.18890     17.65970      6.56590      9.86420   -999.00000   -999.00000     49.60190   -999.00000   -999.00000    158.17740
