~VERSION INFORMATION
 VERS.                           2.00:        CWLS LOG ASCII STANDARD - VERSION 2.00
 WRAP.                             NO:        ONE LINE PER DEPTH STEP
~WELL INFORMATION
#MNEM.UNIT                   DATA             INFORMATION
#----------             --------------        ------------------------------
 STRT.F                       98.0000:        START DEPTH
 STOP.F                     7393.0000:        STOP DEPTH
 STEP.F                        0.5000:        STEP VALUE
 NULL.                      -999.2500:        NULL VALUE
 COMP.     HUKSY OIL COMPANY OPERATOR:        COMPANY  
 LOC .                    3  13N   2W:        LOCATION   
 DATE.                         3/2/78:        LOG DATE 
 WELL.     NORTH KALIKPIK TEST WELL 1:        WELL     
 UWI .                   501032001100:        UNIQUE WELL ID 
 API .                   501032001100:        UNIQUE WELL IDENTIFIER 
 FLD .                        WILDCAT:        FIELD    
 CNTY.                    NORTH SLOPE:        COUNTY  
 STAT.                         ALASKA:        STATE   
 CTRY.                            USA:        COUNTRY 
 OPER.     HUKSY OIL COMPANY OPERATOR:        OPERATOR  
 SRVC.                   SCHLUMBERGER:        SERVICE COMPANY 
 LAT .                         0.0000:        LATITUDE
 LON .                         0.0000:        LONGITUDE
 DIGS.               CENTER LINE DATA:        DIGITIZING COMPANY 
~CURVE INFORMATION      
#MNEM        .UNIT         API CODE           CURVE DESCRIPTION
#-----------------      --------------        ------------------------------
 DEPT        .F                      :        1  DEPTH
 SP          .MV                     :        2  
 LL8         .OHMM                   :        3  
 ILD         .OHMM                   :        4  
 ILM         .OHMM                   :        5  
 DT          .US/F                   :        6  
 GR          .GAPI                   :        7  
 CALI        .IN                     :        8  
 DRHO        .G/C3                   :        9  
 RHOB        .G/C3                   :        10 
 NPHI        .%                      :        11 
 DPHI        .%                      :        12 
~PARAMETER INFORMATION       
~OTHER INFORMATION
~A 
# ...
   6881.00000    -26.73600      4.91170      3.44650      3.63050     95.42050    104.06390     14.68210      0.17340      2.38050     41.93600     16.86800
   6881.50000    -26.74830      4.99840      3.42630      3.60930     93.44740    101.68050     14.83960      0.15470      2.37740     42.45930     19.01070
   6882.00000    -26.76870      5.14670      3.45470      3.64110     92.97180     98.72780     15.33520      0.16650      2.36530     41.31530     20.36640
   6882.50000    -26.79670      5.28100      3.48590      3.67400     92.83660     97.42010     15.37370      0.14940      2.33370     39.82270     17.79080
   6883.00000    -26.82460      5.07620      3.51740      3.70720     93.01100     98.05670     15.36330      0.14500      2.33810     39.99040     18.36260
   6883.50000    -26.71450      4.99370      3.54920      3.74060     93.34900    100.43850     15.27130      0.16080      2.36380     40.53550     19.27040
   6884.00000    -26.62880      5.11760      3.58230      3.77590     94.54840    101.90460     15.14010      0.14620      2.34830     40.71610     18.13100
   6884.50000    -26.61440      5.25840      3.61640      3.81180     96.03360    104.11810     14.92250      0.16590      2.34170     40.64290     16.40590
   6885.00000    -26.37420      5.42270      3.65090      3.84810     97.07950    108.34410     14.52690      0.19790      2.35930     40.47120     13.37290
   6885.50000    -26.01810      5.59210      3.68560      3.88470     98.08970    110.12100     14.40240      0.18460      2.38920     40.53080     14.91690
   6886.00000    -25.93860      5.74580      3.68510      3.88140     99.14620    109.38830     14.34870      0.20290      2.43230     40.96680     17.70320
   6886.50000    -25.94710      5.64060      3.66790      3.86330     99.68300    109.59500     14.29490      0.18450      2.40860     41.16080     20.52000
   6887.00000    -26.10090      5.53730      3.65080      3.84520    100.21990    112.02840     14.79610      0.16870      2.36300     40.40580     21.05900
   6887.50000    -26.33440      5.31360      3.63380      3.82730    100.75670    118.58040     15.07050      0.16000      2.32170     40.35250     20.71420
   6888.00000    -26.60150      5.07950      3.61690      3.80950    101.29350    126.37280     15.03000      0.16520      2.30730     41.34410     20.07990
   6888.50000    -26.85500      4.95480      3.59520      3.78870    101.83030    135.45950     14.50290      0.19870      2.30390     41.73040     18.62770
   6889.00000    -26.88530      5.08840      3.56640      3.75830    102.26620    143.01950     14.19780      0.19160      2.32140     40.96380     16.41980
   6889.50000    -26.74610      5.30560      3.54360      3.73220    102.53110    149.68840     14.43550      0.20590      2.34650     41.25790     14.19800
   6890.00000    -26.89900      5.47580      3.56190      3.75140    102.79590    154.18590     14.41590      0.19480      2.38810     42.18390     12.80330
   6890.50000    -27.04790      5.33270      3.58300      3.77660    102.76830    154.24780     14.18310      0.20640      2.42860     43.22150     13.89810
   6891.00000    -26.81580      5.30970      3.61820      3.81370    102.40530    152.23289     13.95030      0.23620      2.44420     44.06210     13.54130
   6891.50000    -26.57370      5.51690      3.65370      3.85110    102.04230    152.44070     13.74650      0.21830      2.42000     43.77580     12.35680
   6892.00000    -26.68410      5.76530      3.68950      3.88890    101.67930    153.10429     13.62210      0.20190      2.44480     42.80490     12.49160
   6892.50000    -26.79660      6.02490      3.71040      3.90730    102.01730    153.78310     13.57110      0.16520      2.45450     42.06280     10.72900
   6893.00000    -26.63860      6.20600      3.72280      3.92040    102.42950    153.83340     13.69810      0.11550      2.45850     41.06020      7.25620
   6893.50000    -26.59500      6.20650      3.73530      3.93360    102.50500    153.58070     13.59410      0.13110      2.51700     41.35520      7.50930
   6894.00000    -26.57060      6.17510      3.74670      3.94520    102.26290    153.37650     13.47890      0.16720      2.53820     42.48390     10.27320
   6894.50000    -26.55570      6.09710      3.74650      3.94500    102.16800    153.94040     13.57310      0.12780      2.50010     43.28130      7.93950
   6895.00000    -26.59250      6.10120      3.74630      3.94480    102.14620    156.65570     13.56200      0.09610      2.50480     43.30140      5.06720
   6895.50000    -26.69710      6.05020      3.74620      3.94460    103.14960    160.36960     13.55070      0.13300      2.55100     42.44770      4.95190
   6896.00000    -26.78010      5.93870      3.74600      3.94450    104.65130    168.73280     13.57790      0.16530      2.58170     41.88450      6.57050
   6896.50000    -26.86580      5.84850      3.74580      3.94430    105.84250    177.65880     13.48670      0.16100      2.54960     41.93740      7.80840
   6897.00000    -26.96720      5.94770      3.74570      3.94410    106.70110    187.16319     13.32290      0.11990      2.54360     42.41360      8.28960
   6897.50000    -26.95250      6.10800      3.74550      3.94390    107.26240    194.67380     13.08380      0.06960      2.50970     42.88970      6.36020
   6898.00000    -27.04240      6.30610      3.77530      3.99330    107.56310    201.18620     13.24860      0.06840      2.52830     42.18480      8.06550
   6898.50000    -27.13690      6.52240      3.85190      4.07430    108.02600    207.14970     13.10680      0.05650      2.53830     41.85780      7.95850
   6899.00000    -27.21480      6.83480      3.93000      4.15690    108.48880    214.03000     13.07560      0.00830      2.50670     42.32900      6.92860
   6899.50000    -27.34030      7.16220      3.99180      4.20500    108.13970    220.74181     12.81700      0.00710      2.53330     41.71840      7.04580
   6900.00000    -27.46570      7.50530      3.97040      4.18250    107.73990    227.40491     12.78630      0.00730      2.54730     42.67550      7.67850
   6900.50000    -27.59120      7.53800      3.94920      4.16020    107.34020    229.00650     12.82460      0.00610      2.53620     42.72490      7.10850
   6901.00000    -27.71670      7.13130      3.92810      4.13800    107.07960    229.05850     12.86290      0.00470      2.53660     42.46980      7.50290
   6901.50000    -27.80740      6.56420      3.90710      4.11590    107.55370    229.11050     12.83720      0.00230      2.53340     41.61810      7.52010
   6902.00000    -27.73270      6.47950      3.83890      4.06720    108.02790    229.16251     12.82660      0.00080      2.52740     42.51210      6.56790
   6902.50000    -27.60760      7.00160      3.75220      3.97530    108.50200    229.21460     12.83630      0.00050      2.53510     43.00680      5.86330
   6903.00000    -27.58370      7.26820      3.66740      3.88550    108.97620    229.26660     12.84850      0.00000      2.55150     42.62300      5.92510
   6903.50000    -27.70860      7.43970      3.58460      3.79770    108.54610    229.31860     12.86080      0.00160      2.56150     41.97980      6.75230
   6904.00000    -27.96890      6.60250      3.50370      3.71190    107.95830    229.37070     12.87310     -0.00200      2.55370     41.51260      7.50970
   6904.50000    -28.19200      5.91680      3.46140      3.65480    107.46410    229.42270     12.82660      0.00060      2.53940     42.04190      8.54820
   6905.00000    -28.14050      5.63750      3.51450      3.71080    107.06250    229.47470     12.80410      0.02370      2.52980     42.44600      8.02570
   6905.50000    -28.02360      6.29740      3.56830      3.76770    106.08400    229.52679     12.78030      0.04070      2.51970     42.19670      8.11180
   6906.00000    -27.75290      7.44290      3.62300      3.83820    105.54350    229.57880     12.79430      0.05870      2.52120     42.42120      8.89100
