~VERSION INFORMATION
 VERS.                           2.00:        CWLS LOG ASCII STANDARD - VERSION 2.00
 WRAP.                             NO:        ONE LINE PER DEPTH STEP
~WELL INFORMATION
#MNEM.UNIT                   DATA             INFORMATION
#----------             --------------        ------------------------------
 STRT.F                       98.0000:        START DEPTH
 STOP.F                     7393.0000:        STOP DEPTH
 STEP.F                        0.5000:        STEP VALUE
 NULL.                      -999.2500:        NULL VALUE
 COMP.     HUKSY OIL COMPANY OPERATOR:        COMPANY  
 LOC .                    3  13N   2W:        LOCATION   
 DATE.                         3/2/78:        LOG DATE 
 WELL.     NORTH KALIKPIK TEST WELL 1:        WELL     
 UWI .                   501032001100:        UNIQUE WELL ID 
 API .                   501032001100:        UNIQUE WELL IDENTIFIER 
 FLD .                        WILDCAT:        FIELD    
 CNTY.                    NORTH SLOPE:        COUNTY  
 STAT.                         ALASKA:        STATE   
 CTRY.                            USA:        COUNTRY 
 OPER.     HUKSY OIL COMPANY OPERATOR:        OPERATOR  
 SRVC.                   SCHLUMBERGER:        SERVICE COMPANY 
 LAT .                         0.0000:        LATITUDE
 LON .                         0.0000:        LONGITUDE
 DIGS.               CENTER LINE DATA:        DIGITIZING COMPANY 
~CURVE INFORMATION      
#MNEM        .UNIT         API CODE           CURVE DESCRIPTION
#-----------------      --------------        ------------------------------
 DEPT        .F                      :        1  DEPTH
 SP          .MV                     :        2  
 LL8         .OHMM                   :        3  
 ILD         .OHMM                   :        4  
 ILM         .OHMM                   :        5  
 DT          .US/F                   :        6  
 GR          .GAPI                   :        7  
 CALI        .IN                     :        8  
 DRHO        .G/C3                   :        9  
 RHOB        .G/C3                   :        10 
 NPHI        .%                      :        11 
 DPHI        .%                      :        12 
~PARAMETER INFORMATION       
~OTHER INFORMATION
~A 
# ...
   1551.50000    -32.88570      3.49400      3.26340      3.10060    124.93270     61.15240   -999.00000   -999.00000   -999.00000   -999.00000   -999.00000
   1552.00000    -33.16090      3.52130      3.26260      3.11090    124.33180     61.04040   -999.00000   -999.00000   -999.00000   -999.00000   -999.00000
   1552.50000    -33.29870      3.52860      3.26180      3.10470    123.72590     61.94160   -999.00000   -999.00000   -999.00000   -999.00000   -999.00000
   1553.00000    -33.05230      3.51370      3.26110      3.09850    123.19920     63.35650   -999.00000   -999.00000   -999.00000   -999.00000   -999.00000
   1553.50000    -32.67350      3.49890      3.26030      3.09230    123.73350     64.77140   -999.00000   -999.00000   -999.00000   -999.00000   -999.00000
   1554.00000    -32.26440      3.48410      3.25950      3.08570    124.61870     65.27700   -999.00000   -999.00000   -999.00000   -999.00000   -999.00000
   1554.50000    -32.00260      3.46940      3.25880      3.06220    125.16900     65.27230   -999.00000   -999.00000   -999.00000   -999.00000   -999.00000
   1555.00000    -32.02740      3.45480      3.22080      3.03880    125.39280     65.70390   -999.00000   -999.00000   -999.00000   -999.00000   -999.00000
   1555.50000    -32.24620      3.43900      3.15870      3.01500    125.70400     65.71340   -999.00000   -999.00000   -999.00000   -999.00000   -999.00000
   1556.00000    -32.57920      3.42210      3.09770      2.98240    125.61200     63.77670   -999.00000   -999.00000   -999.00000   -999.00000   -999.00000
   1556.50000    -33.04180      3.32730      3.03800      2.95020    125.52200     62.43100   -999.00000   -999.00000   -999.00000   -999.00000   -999.00000
   1557.00000    -33.58310      3.21100      3.04010      2.91830    126.94680     64.16250   -999.00000   -999.00000   -999.00000   -999.00000   -999.00000
   1557.50000    -34.32930      3.22910      3.04500      2.91130    128.16370     64.95830   -999.00000   -999.00000   -999.00000   -999.00000   -999.00000
   1558.00000    -35.42060      3.40480      3.04980      2.91630    128.59109     66.50150   -999.00000   -999.00000   -999.00000   -999.00000   -999.00000
   1558.50000    -36.04970      3.70550      3.04630      2.92140    128.45430     68.17980   -999.00000   -999.00000   -999.00000   -999.00000   -999.00000
   1559.00000    -35.44580      3.69740      3.02930      2.93520    125.73160     66.84550   -999.00000   -999.00000   -999.00000   -999.00000   -999.00000
   1559.50000    -34.57410      3.45930      3.06150      2.96190    124.07920     64.51290   -999.00000   -999.00000   -999.00000   -999.00000   -999.00000
   1560.00000    -34.34070      3.28110      3.18910      3.04740    124.84440     62.20730   -999.00000   -999.00000   -999.00000   -999.00000   -999.00000
   1560.50000    -34.48630      3.41540      3.32200      3.19160    125.54170     61.41280   -999.00000   -999.00000   -999.00000   -999.00000   -999.00000
   1561.00000    -34.63980      3.53150      3.43500      3.34270    126.16980     61.20180   -999.00000   -999.00000   -999.00000   -999.00000   -999.00000
   1561.50000    -34.56290      3.64730      3.41070      3.35990    126.02290     61.17520   -999.00000   -999.00000   -999.00000   -999.00000   -999.00000
   1562.00000    -34.23130      3.76680      3.38650      3.31850    123.43380     61.73210   -999.00000   -999.00000   -999.00000   -999.00000   -999.00000
   1562.50000    -33.72750      3.70340      3.36240      3.27760    121.44470     62.32420   -999.00000   -999.00000   -999.00000   -999.00000   -999.00000
   1563.00000    -33.04630      3.45850      3.33160      3.23110    120.14090     62.38210   -999.00000   -999.00000   -999.00000   -999.00000   -999.00000
   1563.50000    -32.39750      3.28520      3.30080      3.16900    119.50440     61.12500   -999.00000   -999.00000   -999.00000   -999.00000   -999.00000
   1564.00000    -31.75940      3.16710      3.26620      3.10810    121.63720     60.39030   -999.00000   -999.00000   -999.00000   -999.00000   -999.00000
   1564.50000    -31.17980      3.09830      3.22100      3.04840    124.59160     60.37860   -999.00000   -999.00000   -999.00000   -999.00000   -999.00000
   1565.00000    -30.90490      3.07670      3.17640      2.98980    126.40050     61.84800   -999.00000   -999.00000   -999.00000   -999.00000   -999.00000
   1565.50000    -30.94940      3.11730      3.13240      2.94670    127.92090     64.11380   -999.00000   -999.00000   -999.00000   -999.00000   -999.00000
   1566.00000    -31.44020      3.39750      3.08910      2.95640    125.28930     62.99520   -999.00000   -999.00000   -999.00000   -999.00000   -999.00000
   1566.50000    -32.28060      3.64140      3.08370      2.96600    123.03940     60.65010   -999.00000   -999.00000   -999.00000   -999.00000   -999.00000
   1567.00000    -32.42540      3.70520      3.09920      2.97570    122.08100     59.87510   -999.00000   -999.00000   -999.00000   -999.00000   -999.00000
   1567.50000    -32.21230      3.53030      3.11480      2.98540    121.33010     60.14400   -999.00000   -999.00000   -999.00000   -999.00000   -999.00000
   1568.00000    -31.97700      3.33930      3.13040      2.99520    122.86750     59.38540   -999.00000   -999.00000   -999.00000   -999.00000   -999.00000
   1568.50000    -31.84470      3.27450      3.14620      3.01500    124.59160     58.53150   -999.00000   -999.00000   -999.00000   -999.00000   -999.00000
   1569.00000    -31.72420      3.32450      3.16200      3.04160    124.87490     58.12590   -999.00000   -999.00000   -999.00000   -999.00000   -999.00000
   1569.50000    -31.63780      3.38790      3.19580      3.06840    124.92470     58.93240   -999.00000   -999.00000   -999.00000   -999.00000   -999.00000
   1570.00000    -31.66940      3.44840      3.23690      3.09540    123.94880     59.73890   -999.00000   -999.00000   -999.00000   -999.00000   -999.00000
   1570.50000    -31.81690      3.49820      3.27850      3.12270    122.97300     60.21480   -999.00000   -999.00000   -999.00000   -999.00000   -999.00000
   1571.00000    -32.04480      3.48330      3.32060      3.15020    123.09980     60.12590   -999.00000   -999.00000   -999.00000   -999.00000   -999.00000
   1571.50000    -32.15120      3.47150      3.30380      3.17800    123.77660     61.73390   -999.00000   -999.00000   -999.00000   -999.00000   -999.00000
   1572.00000    -32.22360      3.47010      3.28200      3.18530    123.83790     63.59780   -999.00000   -999.00000   -999.00000   -999.00000   -999.00000
   1572.50000    -32.41810      3.49330      3.19400      3.10480    123.42760     64.84950   -999.00000   -999.00000   -999.00000   -999.00000   -999.00000
   1573.00000    -32.75000      3.50200      3.09040      3.02640    123.01730     64.54740   -999.00000   -999.00000   -999.00000   -999.00000   -999.00000
   1573.50000    -32.76380      3.39650      2.97530      2.94300    123.75490     65.91850   -999.00000   -999.00000   -999.00000   -999.00000   -999.00000
   1574.00000    -32.27250      3.24550      2.77550      2.78080    124.79500     67.92550   -999.00000   -999.00000   -999.00000   -999.00000   -999.00000
   1574.50000    -31.36400      3.09510      2.62680      2.62760    127.83240     70.02310   -999.00000   -999.00000   -999.00000   -999.00000   -999.00000
   1575.00000    -30.71970      2.94790      2.49160      2.48280    130.86639     71.22990   -999.00000   -999.00000   -999.00000   -999.00000   -999.00000
   1575.50000    -30.21020      2.78120      2.39740      2.34600    133.91200     71.41560   -999.00000   -999.00000   -999.00000   -999.00000   -999.00000
   1576.00000    -29.90520      2.64110      2.30670      2.21680    137.16161     71.78950   -999.00000   -999.00000   -999.00000   -999.00000   -999.00000
   1576.50000    -29.68730      2.59350      2.26660      2.21780    138.78050     73.40010   -999.00000   -999.00000   -999.00000   -999.00000   -999.00000
