~VERSION INFORMATION
 VERS.                           2.00:        CWLS LOG ASCII STANDARD - VERSION 2.00
 WRAP.                             NO:        ONE LINE PER DEPTH STEP
~WELL INFORMATION
#MNEM.UNIT                   DATA             INFORMATION
#----------             --------------        ------------------------------
 STRT.F                       98.0000:        START DEPTH
 STOP.F                     7393.0000:        STOP DEPTH
 STEP.F                        0.5000:        STEP VALUE
 NULL.                      -999.2500:        NULL VALUE
 COMP.     HUKSY OIL COMPANY OPERATOR:        COMPANY  
 LOC .                    3  13N   2W:        LOCATION   
 DATE.                         3/2/78:        LOG DATE 
 WELL.     NORTH KALIKPIK TEST WELL 1:        WELL     
 UWI .                   501032001100:        UNIQUE WELL ID 
 API .                   501032001100:        UNIQUE WELL IDENTIFIER 
 FLD .                        WILDCAT:        FIELD    
 CNTY.                    NORTH SLOPE:        COUNTY  
 STAT.                         ALASKA:        STATE   
 CTRY.                            USA:        COUNTRY 
 OPER.     HUKSY OIL COMPANY OPERATOR:        OPERATOR  
 SRVC.                   SCHLUMBERGER:        SERVICE COMPANY 
 LAT .                         0.0000:        LATITUDE
 LON .                         0.0000:        LONGITUDE
 DIGS.               CENTER LINE DATA:        DIGITIZING COMPANY 
~CURVE INFORMATION      
#MNEM        .UNIT         API CODE           CURVE DESCRIPTION
#-----------------      --------------        ------------------------------
 DEPT        .F                      :        1  DEPTH
 SP          .MV                     :        2  
 LL8         .OHMM                   :        3  
 ILD         .OHMM                   :        4  
 ILM         .OHMM                   :        5  
 DT          .US/F                   :        6  
 GR          .GAPI                   :        7  
 CALI        .IN                     :        8  
 DRHO        .G/C3                   :        9  
 RHOB        .G/C3                   :        10 
 NPHI        .%                      :        11 
 DPHI        .%                      :        12 
~PARAMETER INFORMATION       
~OTHER INFORMATION
~A 
# ...
   2036.00000    -34.23620      3.90670      3.20870      3.13100    122.13880     59.98850   -999.00000   -999.00000   -999.00000   -999.00000   -999.00000
   2036.50000    -34.17800      3.77540      3.20800      3.11720    122.43790     60.35560   -999.00000   -999.00000   -999.00000   -999.00000   -999.00000
   2037.00000    -33.94490      3.76100      3.19710      3.10340    122.17050     61.53380   -999.00000   -999.00000   -999.00000   -999.00000   -999.00000
   2037.50000    -33.75330      3.81040      3.21300      3.11270    121.90320     62.93260   -999.00000   -999.00000   -999.00000   -999.00000   -999.00000
   2038.00000    -33.81630      3.90000      3.23500      3.12970    121.94160     65.00190   -999.00000   -999.00000   -999.00000   -999.00000   -999.00000
   2038.50000    -34.09660      3.93190      3.22540      3.14680    122.51190     64.25930   -999.00000   -999.00000   -999.00000   -999.00000   -999.00000
   2039.00000    -34.15930      3.83160      3.17710      3.16400    123.08220     63.72900   -999.00000   -999.00000   -999.00000   -999.00000   -999.00000
   2039.50000    -34.23470      3.79610      3.20650      3.18120    123.65250     64.72210   -999.00000   -999.00000   -999.00000   -999.00000   -999.00000
   2040.00000    -34.79600      3.80060      3.21340      3.19860    121.56240     63.17600   -999.00000   -999.00000   -999.00000   -999.00000   -999.00000
   2040.50000    -35.82100      3.86040      3.22270      3.21610    119.00340     61.54350   -999.00000   -999.00000   -999.00000   -999.00000   -999.00000
   2041.00000    -36.94140      3.96530      3.26760      3.23360    117.54140     60.54720   -999.00000   -999.00000   -999.00000   -999.00000   -999.00000
   2041.50000    -37.86160      4.08810      3.28090      3.25150    114.04720     60.66150   -999.00000   -999.00000   -999.00000   -999.00000   -999.00000
   2042.00000    -38.63170      4.18170      3.31490      3.27890    112.09410     62.70320   -999.00000   -999.00000   -999.00000   -999.00000   -999.00000
   2042.50000    -39.27770      4.26330      3.34050      3.30660    114.28080     60.44680   -999.00000   -999.00000   -999.00000   -999.00000   -999.00000
   2043.00000    -39.24820      4.29100      3.37160      3.33440    114.48600     58.29520   -999.00000   -999.00000   -999.00000   -999.00000   -999.00000
   2043.50000    -38.95800      4.24890      3.39160      3.36260    114.60210     56.87770   -999.00000   -999.00000   -999.00000   -999.00000   -999.00000
   2044.00000    -37.98320      4.20410      3.41450      3.37330    115.82800     58.74250   -999.00000   -999.00000   -999.00000   -999.00000   -999.00000
   2044.50000    -36.72310      4.14660      3.43220      3.35960    114.05940     60.42090   -999.00000   -999.00000   -999.00000   -999.00000   -999.00000
   2045.00000    -36.07410      4.09410      3.42730      3.34600    112.81390     62.23550   -999.00000   -999.00000   -999.00000   -999.00000   -999.00000
   2045.50000    -36.08350      4.08880      3.38360      3.33240    113.11050     62.97660   -999.00000   -999.00000   -999.00000   -999.00000   -999.00000
   2046.00000    -36.46440      4.18950      3.39760      3.31890    115.06600     63.76490   -999.00000   -999.00000   -999.00000   -999.00000   -999.00000
   2046.50000    -36.83980      4.27720      3.36810      3.30540    116.81770     61.60480   -999.00000   -999.00000   -999.00000   -999.00000   -999.00000
   2047.00000    -36.83170      4.16430      3.32290      3.28650    120.14300     59.74140   -999.00000   -999.00000   -999.00000   -999.00000   -999.00000
   2047.50000    -36.67590      4.00880      3.27250      3.26400    123.73160     59.69990   -999.00000   -999.00000   -999.00000   -999.00000   -999.00000
   2048.00000    -36.74080      3.86370      3.27110      3.24160    127.79740     63.37410   -999.00000   -999.00000   -999.00000   -999.00000   -999.00000
   2048.50000    -36.87280      3.71920      3.26150      3.21940    129.44791     65.13460   -999.00000   -999.00000   -999.00000   -999.00000   -999.00000
   2049.00000    -36.37000      3.67780      3.24670      3.19740    128.56490     64.58460   -999.00000   -999.00000   -999.00000   -999.00000   -999.00000
   2049.50000    -35.49910      3.84680      3.25730      3.19600    125.73900     61.97190   -999.00000   -999.00000   -999.00000   -999.00000   -999.00000
   2050.00000    -35.01200      4.17280      3.27060      3.21720    121.86540     59.69210   -999.00000   -999.00000   -999.00000   -999.00000   -999.00000
   2050.50000    -35.09200      4.26980      3.28100      3.23860    119.04970     59.25400   -999.00000   -999.00000   -999.00000   -999.00000   -999.00000
   2051.00000    -35.31000      4.42600      3.29140      3.26010    119.43380     61.48470   -999.00000   -999.00000   -999.00000   -999.00000   -999.00000
   2051.50000    -35.49230      4.56660      3.30180      3.28170    120.35640     63.44370   -999.00000   -999.00000   -999.00000   -999.00000   -999.00000
   2052.00000    -35.33320      4.35920      3.31010      3.30350    121.27900     66.97660   -999.00000   -999.00000   -999.00000   -999.00000   -999.00000
   2052.50000    -35.09290      4.13610      3.31210      3.32540    122.23460     69.96020   -999.00000   -999.00000   -999.00000   -999.00000   -999.00000
   2053.00000    -34.88820      4.09990      3.36790      3.34750    122.51070     70.63600   -999.00000   -999.00000   -999.00000   -999.00000   -999.00000
   2053.50000    -34.71420      4.15690      3.38780      3.36970    122.32020     69.17310   -999.00000   -999.00000   -999.00000   -999.00000   -999.00000
   2054.00000    -34.77200      4.24050      3.39010      3.37090    120.87830     67.41440   -999.00000   -999.00000   -999.00000   -999.00000   -999.00000
   2054.50000    -35.15370      4.28100      3.39660      3.36600    122.28830     69.73790   -999.00000   -999.00000   -999.00000   -999.00000   -999.00000
   2055.00000    -35.63190      4.26960      3.39460      3.36110    123.13040     72.42490   -999.00000   -999.00000   -999.00000   -999.00000   -999.00000
   2055.50000    -35.72880      4.19760      3.37880      3.35620    123.97260     75.05220   -999.00000   -999.00000   -999.00000   -999.00000   -999.00000
   2056.00000    -35.77070      4.14910      3.41370      3.35130    124.81470     76.46210   -999.00000   -999.00000   -999.00000   -999.00000   -999.00000
   2056.50000    -35.90480      4.14330      3.43600      3.34640    125.23000     75.69370   -999.00000   -999.00000   -999.00000   -999.00000   -999.00000
   2057.00000    -36.10220      4.20790      3.43220      3.34150    124.86140     75.55710   -999.00000   -999.00000   -999.00000   -999.00000   -999.00000
   2057.50000    -36.26520      4.26010      3.42540      3.33670    124.49280     76.06660   -999.00000   -999.00000   -999.00000   -999.00000   -999.00000
   2058.00000    -36.45570      4.21340      3.43170      3.33180    124.74270     76.92330   -999.00000   -999.00000   -999.00000   -999.00000   -999.00000
   2058.50000    -36.64170      4.15150      3.41560      3.32700    125.05150     77.51820   -999.00000   -999.00000   -999.00000   -999.00000   -999.00000
   2059.00000    -36.65960      4.13310      3.38470      3.32210    125.36020     77.21690   -999.00000   -999.00000   -999.00000   -999.00000   -999.00000
   2059.50000    -36.24610      4.11670      3.38270      3.31860    125.62770     77.42980   -999.00000   -999.00000   -999.00000   -999.00000   -999.00000
   2060.00000    -35.85550      4.11430      3.36840      3.31570    125.66400     78.78400   -999.00000   -999.00000   -999.00000   -999.00000   -999.00000
   2060.50000    -35.63090      4.11160      3.32330      3.31270    125.59610     79.36760   -999.00000   -999.00000   -999.00000   -999.00000   -999.00000
   2061.00000    -35.57400      4.09390      3.31040      3.30980    125.74180     76.61050   -999.00000   -999.00000   -999.00000   -999.00000   -999.00000
