~VERSION INFORMATION
 VERS.                           2.00:        CWLS LOG ASCII STANDARD - VERSION 2.00
 WRAP.                             NO:        ONE LINE PER DEPTH STEP
~WELL INFORMATION
#MNEM.UNIT                   DATA             INFORMATION
#----------             --------------        ------------------------------
 STRT.F                       98.0000:        START DEPTH
 STOP.F                     7393.0000:        STOP DEPTH
 STEP.F                        0.5000:        STEP VALUE
 NULL.                      -999.2500:        NULL VALUE
 COMP.     HUKSY OIL COMPANY OPERATOR:        COMPANY  
 LOC .                    3  13N   2W:        LOCATION   
 DATE.                         3/2/78:        LOG DATE 
 WELL.     NORTH KALIKPIK TEST WELL 1:        WELL     
 UWI .                   501032001100:        UNIQUE WELL ID 
 API .                   501032001100:        UNIQUE WELL IDENTIFIER 
 FLD .                        WILDCAT:        FIELD    
 CNTY.                    NORTH SLOPE:        COUNTY  
 STAT.                         ALASKA:        STATE   
 CTRY.                            USA:        COUNTRY 
 OPER.     HUKSY OIL COMPANY OPERATOR:        OPERATOR  
 SRVC.                   SCHLUMBERGER:        SERVICE COMPANY 
 LAT .                         0.0000:        LATITUDE
 LON .                         0.0000:        LONGITUDE
 DIGS.               CENTER LINE DATA:        DIGITIZING COMPANY 
~CURVE INFORMATION      
#MNEM        .UNIT         API CODE           CURVE DESCRIPTION
#-----------------      --------------        ------------------------------
 DEPT        .F                      :        1  DEPTH
 SP          .MV                     :        2  
 LL8         .OHMM                   :        3  
 ILD         .OHMM                   :        4  
 ILM         .OHMM                   :        5  
 DT          .US/F                   :        6  
 GR          .GAPI                   :        7  
 CALI        .IN                     :        8  
 DRHO        .G/C3                   :        9  
 RHOB        .G/C3                   :        10 
 NPHI        .%                      :        11 
 DPHI        .%                      :        12 
~PARAMETER INFORMATION       
~OTHER INFORMATION
~A 
# ...
   3540.50000    -53.63100      3.99910      3.39870      3.60800    126.05670     90.74850     15.12820      0.04760      2.28660     50.33440     21.74290
   3541.00000    -53.62290      4.03720      3.45250      3.67830    127.43140     90.65650     15.06130      0.05740      2.29270     49.37940     20.86460
   3541.50000    -53.42330      4.07570      3.52120      3.75160    126.05600     89.55740     15.04170      0.06040      2.29810     48.56340     20.48340
   3542.00000    -53.06440      4.11450      3.59140      3.82630    122.79780     89.46310     15.05510      0.07390      2.31120     47.69160     19.46630
   3542.50000    -52.72990      4.15370      3.66290      3.90250    115.68550     91.35730     15.07510      0.06010      2.32040     46.99470     18.21230
   3543.00000    -52.51440      4.19320      3.73580      3.98020    113.07230     90.97260     15.09500      0.07450      2.34730     46.63910     17.90740
   3543.50000    -52.19310      4.23320      3.81020      4.05950    110.34500     88.40830     15.12120      0.08200      2.35340     44.99600     17.72510
   3544.00000    -52.05450      4.29940      3.88270      4.12310    112.26060     85.10010     15.15000      0.07830      2.35990     43.54060     17.00440
   3544.50000    -51.93740      4.38340      3.92780      4.17110    115.12530     82.74970     15.16660      0.07660      2.36670     43.58670     16.21650
   3545.00000    -51.81430      4.46910      3.97350      4.21950    115.21150     80.65190     15.17040      0.08260      2.38010     44.04410     16.46020
   3545.50000    -51.80550      4.55640      4.01970      4.26860    113.43060     79.09000     15.17420      0.08550      2.38220     44.10720     16.00580
   3546.00000    -51.89490      4.64760      4.06640      4.31820    111.33680     78.47220     15.17810      0.08710      2.38600     43.39370     16.35690
   3546.50000    -51.89360      4.76980      4.11360      4.36840    107.48580     79.19170     15.17910      0.08750      2.38650     42.41960     15.85790
   3547.00000    -51.77770      4.89520      4.15280      4.40650    105.83410     79.91120     15.17280      0.07070      2.38790     41.25700     15.84310
   3547.50000    -51.70960      5.02390      4.18880      4.44470    105.63700     80.81580     15.16660      0.07600      2.39260     39.98990     15.94830
   3548.00000    -51.69240      5.15590      4.22510      4.48320    107.73720     82.23620     15.16040      0.06520      2.39160     39.63690     15.35900
   3548.50000    -51.76660      5.15830      4.26170      4.52200    109.83730     83.06710     15.15410      0.05770      2.39270     40.05930     13.65830
   3549.00000    -51.96030      5.06900      4.29860      4.56120    108.20790     83.89800     15.14790      0.06940      2.41280     40.78890     13.95780
   3549.50000    -52.03160      4.98110      4.33580      4.60070    106.08330     84.79150     15.14170      0.08600      2.43280     41.72150     15.72870
   3550.00000    -51.93850      5.01060      4.37340      4.64050    109.49680     86.95130     15.14240      0.07230      2.41150     42.39840     14.94180
   3550.50000    -51.78260      5.06480      4.39100      4.65460    109.04970     89.00580     15.15090      0.04860      2.39220     42.98090     14.71540
   3551.00000    -51.63130      5.11960      4.39210      4.65590    109.26750     89.06330     15.15940      0.06830      2.41100     42.85730     16.94260
   3551.50000    -51.84650      5.13500      4.39330      4.65710    110.11080     88.49080     15.16790      0.06720      2.40130     43.23810     17.14550
   3552.00000    -51.91230      5.10100      4.39450      4.65840    108.73750     86.24810     15.17640      0.03570      2.37450     44.04580     15.27580
   3552.50000    -51.86510      5.06720      4.39570      4.65970    107.86110     83.57830     15.19770      0.04370      2.38900     44.78010     14.12260
   3553.00000    -52.07510      5.03390      4.39690      4.66090    108.86550     82.88190     15.22070      0.07420      2.40950     44.84960     14.93950
   3553.50000    -52.56380      5.00800      4.39810      4.66220    109.70840     84.86260     15.23860      0.09080      2.41470     43.92260     14.96300
   3554.00000    -52.95290      5.02150      4.39930      4.66350    107.03550     84.50090     15.22960      0.07040      2.41030     42.94790     14.97160
   3554.50000    -53.13650      5.09990      4.40050      4.66470    108.94270     83.71650     15.22050      0.06430      2.40940     42.64990     15.42330
   3555.00000    -53.31160      5.17950      4.40170      4.66600    108.22090     83.20290     15.21140      0.06540      2.40280     42.38780     16.05250
   3555.50000    -53.54080      5.26910      4.40100      4.66610    106.22960     83.41800     15.20230      0.06330      2.39630     42.83270     15.40610
   3556.00000    -53.63240      5.37140      4.38500      4.64910    108.15300     83.42530     15.19320      0.05480      2.38920     43.29290     16.75500
   3556.50000    -53.53550      5.24910      4.36900      4.63220    109.59960     82.82040     15.18410      0.06290      2.39110     43.89720     15.87210
   3557.00000    -53.20550      5.03270      4.35310      4.61530    114.07770     82.21560     15.17500      0.06520      2.38800     44.44610     17.04510
   3557.50000    -52.81260      4.97160      4.33730      4.59850    117.30680     82.97820     15.17520      0.07600      2.38640     45.38110     18.28980
   3558.00000    -52.43110      4.91130      4.32150      4.58180    115.36570     83.85900     15.17670      0.06350      2.36600     45.71220     18.01230
   3558.50000    -52.20780      4.85160      4.30580      4.56510    113.12040     84.17860     15.17810      0.05880      2.35240     45.54710     17.91120
   3559.00000    -52.34900      4.83550      4.28820      4.54670    110.30130     84.04320     15.17950      0.06630      2.36000     44.59990     18.53600
   3559.50000    -52.35260      5.10130      4.27040      4.52790    109.10050     83.82020     15.18370      0.06170      2.35430     45.21220     17.31270
   3560.00000    -52.01050      5.16890      4.25280      4.50920    110.87870     83.37930     15.19030      0.05370      2.35310     46.10090     16.68010
   3560.50000    -51.64850      5.06380      4.23520      4.49050    111.95510     83.12600     15.19690      0.06990      2.37410     46.64880     17.77100
   3561.00000    -51.45140      4.96080      4.21760      4.47190    111.22670     83.22720     15.20350      0.06940      2.37260     45.10620     17.03850
   3561.50000    -51.51220      5.00450      4.20020      4.45340    110.49830     83.32840     15.21010      0.05680      2.36010     43.40510     15.89380
   3562.00000    -51.73710      5.06120      4.18280      4.43500    110.59610     83.46200     15.21670      0.05020      2.37590     42.15840     14.52360
   3562.50000    -51.95800      4.99580      4.16550      4.41660    111.15410     83.60390     15.22890      0.06360      2.39690     41.21280     15.97460
   3563.00000    -52.22040      4.91900      4.14820      4.39840    111.77780     84.24660     15.24420      0.08990      2.41080     41.21230     16.96850
   3563.50000    -52.40380      4.88680      4.13110      4.38020    112.40160     85.35880     15.25910      0.07330      2.38990     42.30480     16.57310
   3564.00000    -52.45540      4.76770      4.11400      4.36200    113.91790     86.00980     15.27240      0.05460      2.37810     43.47260     15.91430
   3564.50000    -52.33940      4.61500      4.09690      4.34400    116.41880     84.57360     15.29290      0.06000      2.38150     44.32100     17.16120
   3565.00000    -52.05660      4.60300      4.08000      4.32600    115.36890     83.65630     15.33940      0.07660      2.39050     44.67980     17.53890
   3565.50000    -52.03590      4.60570      4.06450      4.30990    112.85020     83.96930     15.38590      0.08240      2.37140     43.81180     17.02570
