~VERSION INFORMATION
 VERS.                           2.00:        CWLS LOG ASCII STANDARD - VERSION 2.00
 WRAP.                             NO:        ONE LINE PER DEPTH STEP
~WELL INFORMATION
#MNEM.UNIT                   DATA             INFORMATION
#----------             --------------        ------------------------------
 STRT.F                       98.0000:        START DEPTH
 STOP.F                     7393.0000:        STOP DEPTH
 STEP.F                        0.5000:        STEP VALUE
 NULL.                      -999.2500:        NULL VALUE
 COMP.     HUKSY OIL COMPANY OPERATOR:        COMPANY  
 LOC .                    3  13N   2W:        LOCATION   
 DATE.                         3/2/78:        LOG DATE 
 WELL.     NORTH KALIKPIK TEST WELL 1:        WELL     
 UWI .                   501032001100:        UNIQUE WELL ID 
 API .                   501032001100:        UNIQUE WELL IDENTIFIER 
 FLD .                        WILDCAT:        FIELD    
 CNTY.                    NORTH SLOPE:        COUNTY  
 STAT.                         ALASKA:        STATE   
 CTRY.                            USA:        COUNTRY 
 OPER.     HUKSY OIL COMPANY OPERATOR:        OPERATOR  
 SRVC.                   SCHLUMBERGER:        SERVICE COMPANY 
 LAT .                         0.0000:        LATITUDE
 LON .                         0.0000:        LONGITUDE
 DIGS.               CENTER LINE DATA:        DIGITIZING COMPANY 
~CURVE INFORMATION      
#MNEM        .UNIT         API CODE           CURVE DESCRIPTION
#-----------------      --------------        ------------------------------
 DEPT        .F                      :        1  DEPTH
 SP          .MV                     :        2  
 LL8         .OHMM                   :        3  
 ILD         .OHMM                   :        4  
 ILM         .OHMM                   :        5  
 DT          .US/F                   :        6  
 GR          .GAPI                   :        7  
 CALI        .IN                     :        8  
 DRHO        .G/C3                   :        9  
 RHOB        .G/C3                   :        10 
 NPHI        .%                      :        11 
 DPHI        .%                      :        12 
~PARAMETER INFORMATION       
~OTHER INFORMATION
~A 
# ...
   7365.50000    -22.66870      3.40750      2.35290      2.64120     84.23620     58.66190     12.93960      0.08200      2.60200     29.36230      4.48430
   7366.00000    -22.51560      3.54300      2.42710      2.72460     83.89630     91.10590     12.48140      0.06140      2.58680     29.05140      5.97420
   7366.50000    -22.32230      3.68380      2.50370      2.80300     85.38300    115.41370     12.88410      0.04280      2.56730     28.79440      6.38030
   7367.00000    -22.42630      3.83020      2.57620      2.86900     87.17640    115.95980     13.07570      0.01790      2.54720     28.87740      5.94660
   7367.50000    -22.73640      3.98250      2.63680      2.93650     89.76370    115.98310     13.00030      0.01630      2.55300     29.31440      5.30810
   7368.00000    -22.96710      4.14080      2.69890      3.00560     92.76880    115.99090     12.67240      0.02450      2.56290     30.53300      5.10850
   7368.50000    -22.98960      4.30540      2.76240      3.07640     95.54600    115.99680     12.65900      0.04970      2.57260     32.88660      4.75760
   7369.00000    -22.96450      4.47650      2.81840      3.11490     97.43200    116.00350     12.64720      0.06600      2.57130     35.93150      3.22240
   7369.50000    -23.04360      4.42030      2.78500      3.07810     98.47470    116.00370     12.68510      0.12810      2.58690     37.67360      4.77250
   7370.00000    -23.11640      4.14450      2.74780      3.04170     98.80390    116.00330     12.86940      0.16250      2.57300     38.88040      2.38450
   7370.50000    -23.23070      3.73340      2.58460      3.00580     99.12940    116.01170     12.76470      0.15210      2.59630     39.59250      3.62830
   7371.00000    -23.50420      3.36300      2.43110      2.85580     99.33880    116.00780     12.66000      0.18480      2.61090     40.44130      4.68380
   7371.50000    -23.75170      3.02940      2.28680      2.68620     99.25380    116.00650     13.43020      0.18410      2.58590     40.96660      5.55310
   7372.00000    -23.87270      2.84270      2.15100      2.52680     97.33570    116.01480     13.73130      0.17090      2.57410     41.91070      5.11010
   7372.50000    -23.93970      2.73960      2.02320      2.37680     93.92140    116.00630     13.50250      0.15170      2.56550     41.33430      6.43660
   7373.00000    -24.08090      2.64040      1.90310      2.23570     92.77510    116.00190     13.54530      0.15830      2.56040     40.06500      7.35920
   7373.50000    -24.16200      2.68830      1.79010      2.10290     92.29880    115.99760     13.39740      0.15170      2.54350     38.26590      7.59040
   7374.00000    -24.08630      2.75810      1.68380      1.97810     94.46250    116.00440     13.57070      0.13860      2.52250     36.45330      6.24690
   7374.50000    -24.00910      2.82970      1.73440      1.95050     96.13440    116.00930     13.84870      0.13040      2.53810     35.34450      4.46340
   7375.00000    -23.98530      2.90320      1.79100      2.01420     95.53000    116.00880     13.76330      0.11770      2.56950     34.07950      2.83250
   7375.50000    -23.92420      2.97980      1.84950      2.08000     95.48950    116.00830     13.13900      0.10940      2.59200     32.88250      5.77330
   7376.00000    -23.88500      3.10950      1.90990      2.13670     95.37890    115.99720     12.82300      0.12980      2.59770     30.60680      7.77780
   7376.50000    -23.95190      3.24490      1.96300      2.18510     94.88450    115.99240     12.58880      0.08680      2.53130     27.45870      6.48120
   7377.00000    -24.03070      3.38610      2.00740      2.23450     91.96910    115.95210     12.90100      0.10490      2.55040     22.65260      7.93980
   7377.50000    -23.95670      3.35340      2.05290      2.28670     86.24870    115.96470     13.45570      0.12020      2.53280     16.78220      8.88740
   7378.00000    -24.02890      3.20090      2.09940      2.38350     83.15450    115.94550     13.64150      0.11340      2.54180     10.00380      9.43310
   7378.50000    -24.20410      3.05530      2.18260      2.48450   -999.00000    115.95790     12.86140      0.10580      2.49670      3.22540      7.43280
   7379.00000    -24.35340      3.02980      2.27510      2.57880   -999.00000    115.91180     12.82140      0.11000      2.50790      0.38230      9.50630
   7379.50000    -24.46010      3.07380      2.36790      2.66320   -999.00000    115.90050     12.67330      0.07340      2.50740      0.03720      7.18670
   7380.00000    -24.76360      3.11850      2.44540      2.75030   -999.00000    115.90050     12.39840      0.03020      2.51690      0.04880      7.00750
   7380.50000    -25.04850      3.16380      2.52540      2.92800   -999.00000    115.89600     12.38370      0.02320      2.54260      0.06040      5.62420
   7381.00000    -24.80580      3.60350      2.60810      3.17380   -999.00000    115.89800     12.36910      0.01530      2.55020      0.07200      4.36740
   7381.50000    -24.31500      4.12670      2.84270      3.40580   -999.00000    115.90000     12.35400      0.01950      2.56590      0.08350      3.78230
   7382.00000    -24.08260      4.72590      3.15780      3.65470   -999.00000    115.89780     12.32440      0.03420      2.58420      0.09510      5.04000
   7382.50000    -23.98210      5.36120      3.50790      3.92180   -999.00000    115.89360     12.29180      0.04690      2.58300      0.10670      5.27100
   7383.00000    -24.09580      5.62270      3.84710      4.20850   -999.00000    115.89360     12.25910      0.03430      2.56170      0.11830      4.35660
   7383.50000    -24.14540      5.89700      3.87120      4.30520   -999.00000    115.88810     12.26060      0.02630      2.57110      0.12990      4.11500
   7384.00000    -23.91290      6.18460      3.89540      4.29440   -999.00000    115.86840     12.27380      0.04700      2.58740      0.14150      5.30280
   7384.50000    -23.73910      5.83730      3.90540      4.32130   -999.00000    115.85690     12.28700      0.05330      2.58090      0.15310      7.53900
   7385.00000    -23.92570      5.41150      3.84930      4.26090   -999.00000    115.82000     12.31620      0.05560      2.55590      0.16470      9.79100
   7385.50000    -24.37210      5.01670      3.79410      4.19970   -999.00000    115.80920     12.13090      0.05110      2.51710      0.16800      8.52590
   7386.00000    -24.39570      4.65080      3.73960      4.13940   -999.00000    115.69260     12.05180      0.07320      2.49420      0.16970      7.30630
   7386.50000    -24.25690      4.51190      3.68590      4.08000   -999.00000    115.54790     11.90760      0.10800      2.52580      0.17150      6.65900
   7387.00000    -24.31560      4.55690      3.63300      4.02140   -999.00000    115.13920     11.86990      0.10560      2.53600      0.17330      5.59850
   7387.50000    -24.43020      4.60240      3.58080      3.96370   -999.00000   -999.00000   -999.00000      0.09620      2.55110      0.24860      5.99090
   7388.00000    -24.50820      4.64840      3.57550      3.93860   -999.00000   -999.00000   -999.00000      0.08680      2.56270      0.40030      6.61590
   7388.50000   -999.00000   -999.00000   -999.00000   -999.00000   -999.00000   -999.00000   -999.00000      0.09280      2.55310      0.61500      8.00180
   7389.00000   -999.00000   -999.00000   -999.00000   -999.00000   -999.00000   -999.00000   -999.00000      0.10200      2.54150      0.87250      9.13680
   7389.50000   -999.00000   -999.00000   -999.00000   -999.00000   -999.00000   -999.00000   -999.00000      0.09960      2.51760      1.18010      7.79720
   7390.00000   -999.00000   -999.00000   -999.00000   -999.00000   -999.00000   -999.00000   -999.00000      0.09950      2.50290      1.82260      8.25880
   7390.50000   -999.00000   -999.00000   -999.00000   -999.00000   -999.00000   -999.00000   -999.00000      0.13420      2.53080      1.93740      9.41490
