~VERSION INFORMATION
 VERS.                           2.00:        CWLS LOG ASCII STANDARD - VERSION 2.00
 WRAP.                             NO:        ONE LINE PER DEPTH STEP
~WELL INFORMATION
#MNEM.UNIT                   DATA             INFORMATION
#----------             --------------        ------------------------------
 STRT.F                       98.0000:        START DEPTH
 STOP.F                     7393.0000:        STOP DEPTH
 STEP.F                        0.5000:        STEP VALUE
 NULL.                      -999.2500:        NULL VALUE
 COMP.     HUKSY OIL COMPANY OPERATOR:        COMPANY  
 LOC .                    3  13N   2W:        LOCATION   
 DATE.                         3/2/78:        LOG DATE 
 WELL.     NORTH KALIKPIK TEST WELL 1:        WELL     
 UWI .                   501032001100:        UNIQUE WELL ID 
 API .                   501032001100:        UNIQUE WELL IDENTIFIER 
 FLD .                        WILDCAT:        FIELD    
 CNTY.                    NORTH SLOPE:        COUNTY  
 STAT.                         ALASKA:        STATE   
 CTRY.                            USA:        COUNTRY 
 OPER.     HUKSY OIL COMPANY OPERATOR:        OPERATOR  
 SRVC.                   SCHLUMBERGER:        SERVICE COMPANY 
 LAT .                         0.0000:        LATITUDE
 LON .                         0.0000:        LONGITUDE
 DIGS.               CENTER LINE DATA:        DIGITIZING COMPANY 
~CURVE INFORMATION      
#MNEM        .UNIT         API CODE           CURVE DESCRIPTION
#-----------------      --------------        ------------------------------
 DEPT        .F                      :        1  DEPTH
 SP          .MV                     :        2  
 LL8         .OHMM                   :        3  
 ILD         .OHMM                   :        4  
 ILM         .OHMM                   :        5  
 DT          .US/F                   :        6  
 GR          .GAPI                   :        7  
 CALI        .IN                     :        8  
 DRHO        .G/C3                   :        9  
 RHOB        .G/C3                   :        10 
 NPHI        .%                      :        11 
 DPHI        .%                      :        12 
~PARAMETER INFORMATION       
~OTHER INFORMATION
~A 
# ...
   2571.50000    -56.35920      4.87200      3.24440      3.40340    109.96200     48.10650   -999.00000   -999.00000   -999.00000   -999.00000   -999.00000
   2572.00000    -56.06120      4.72750      3.20580      3.36260    110.26410     50.40560   -999.00000   -999.00000   -999.00000   -999.00000   -999.00000
   2572.50000    -55.58580      4.47100      3.17900      3.34440    110.81380     51.76090   -999.00000   -999.00000   -999.00000   -999.00000   -999.00000
   2573.00000    -54.87080      4.27790      3.16010      3.37040    111.68350     51.44650   -999.00000   -999.00000   -999.00000   -999.00000   -999.00000
   2573.50000    -53.53610      4.31650      3.19990      3.39750    111.92670     51.19390   -999.00000   -999.00000   -999.00000   -999.00000   -999.00000
   2574.00000    -50.76480      4.31340      3.25370      3.42470    111.92360     51.49010   -999.00000   -999.00000   -999.00000   -999.00000   -999.00000
   2574.50000    -46.56610      4.15790      3.33680      3.48330    111.29700     51.78880   -999.00000   -999.00000   -999.00000   -999.00000   -999.00000
   2575.00000    -41.70060      4.09330      3.51430      3.64320    109.83350     53.20100   -999.00000   -999.00000   -999.00000   -999.00000   -999.00000
   2575.50000    -37.89680      4.09230      3.66460      3.81040    108.96900     57.35000   -999.00000   -999.00000   -999.00000   -999.00000   -999.00000
   2576.00000    -35.32160      4.24850      3.80960      3.98320    108.94270     62.37310   -999.00000   -999.00000   -999.00000   -999.00000   -999.00000
   2576.50000    -34.07350      4.42090      4.04020      4.15360    109.32930     66.44540   -999.00000   -999.00000   -999.00000   -999.00000   -999.00000
   2577.00000    -33.50590      4.60030      4.22600      4.33130    109.85960     69.49730   -999.00000   -999.00000   -999.00000   -999.00000   -999.00000
   2577.50000    -33.34610      4.78690      4.42030      4.51650    110.65720     70.63280   -999.00000   -999.00000   -999.00000   -999.00000   -999.00000
   2578.00000    -33.48740      4.85790      4.62350      4.70970    111.58240     70.32660   -999.00000   -999.00000   -999.00000   -999.00000   -999.00000
   2578.50000    -33.70960      4.92980      4.83610      4.80750    112.45470     68.83080   -999.00000   -999.00000   -999.00000   -999.00000   -999.00000
   2579.00000    -33.93190      5.00280      4.87030      4.88430    113.05850     67.35010   -999.00000   -999.00000   -999.00000   -999.00000   -999.00000
   2579.50000    -34.10540      5.06480      4.85390      4.88460    112.51610     67.79120   -999.00000   -999.00000   -999.00000   -999.00000   -999.00000
   2580.00000    -34.21810      5.09220      4.83750      4.85710    110.89410     68.06860   -999.00000   -999.00000   -999.00000   -999.00000   -999.00000
   2580.50000    -34.25560      5.05550      4.82120      4.82970    109.58260     66.44760   -999.00000   -999.00000   -999.00000   -999.00000   -999.00000
   2581.00000    -34.28130      4.97410      4.80490      4.80240    108.91640     65.09170   -999.00000   -999.00000   -999.00000   -999.00000   -999.00000
   2581.50000    -34.25860      4.90500      4.67650      4.76900    108.64490     64.46740   -999.00000   -999.00000   -999.00000   -999.00000   -999.00000
   2582.00000    -34.23590      4.83680      4.52950      4.62510    109.06450     67.08500   -999.00000   -999.00000   -999.00000   -999.00000   -999.00000
   2582.50000    -34.11230      4.57990      4.38710      4.48550    109.72340     70.49730   -999.00000   -999.00000   -999.00000   -999.00000   -999.00000
   2583.00000    -33.85250      4.34100      4.24910      4.35010    110.54510     73.42340   -999.00000   -999.00000   -999.00000   -999.00000   -999.00000
   2583.50000    -33.51600      4.25770      4.11550      4.21880    111.77030     71.79350   -999.00000   -999.00000   -999.00000   -999.00000   -999.00000
   2584.00000    -33.09170      4.21750      3.98610      4.09150    112.59810     71.25030   -999.00000   -999.00000   -999.00000   -999.00000   -999.00000
   2584.50000    -32.66570      4.27130      3.88180      4.03150    113.09290     71.99370   -999.00000   -999.00000   -999.00000   -999.00000   -999.00000
   2585.00000    -32.18180      4.30670      3.86060      4.01020    113.22830     73.01060   -999.00000   -999.00000   -999.00000   -999.00000   -999.00000
   2585.50000    -31.55360      4.23410      3.83950      3.98890    113.05880     72.07100   -999.00000   -999.00000   -999.00000   -999.00000   -999.00000
   2586.00000    -31.01220      4.16270      3.81850      3.96810    112.69880     70.14970   -999.00000   -999.00000   -999.00000   -999.00000   -999.00000
   2586.50000    -30.59430      4.09240      3.79760      3.95000    112.24500     69.41390   -999.00000   -999.00000   -999.00000   -999.00000   -999.00000
   2587.00000    -30.28670      4.03920      3.77680      3.93200    112.27160     68.56960   -999.00000   -999.00000   -999.00000   -999.00000   -999.00000
   2587.50000    -30.08840      4.04800      3.76200      3.91410    112.81590     66.35310   -999.00000   -999.00000   -999.00000   -999.00000   -999.00000
   2588.00000    -29.98660      4.05690      3.76580      3.89620    113.99600     64.39500   -999.00000   -999.00000   -999.00000   -999.00000   -999.00000
   2588.50000    -29.96000      4.06580      3.76950      3.87840    114.83110     62.40980   -999.00000   -999.00000   -999.00000   -999.00000   -999.00000
   2589.00000    -29.92230      4.08290      3.77330      3.86070    115.63610     61.94850   -999.00000   -999.00000   -999.00000   -999.00000   -999.00000
   2589.50000    -29.90070      4.10020      3.77710      3.84310    116.38050     62.47640   -999.00000   -999.00000   -999.00000   -999.00000   -999.00000
   2590.00000    -29.88520      4.11750      3.78080      3.85430    116.52710     61.86000   -999.00000   -999.00000   -999.00000   -999.00000   -999.00000
   2590.50000    -29.90070      4.13480      3.78460      3.87120    116.62550     60.68280   -999.00000   -999.00000   -999.00000   -999.00000   -999.00000
   2591.00000    -29.88090      4.13390      3.78840      3.88800    116.40690     58.71960   -999.00000   -999.00000   -999.00000   -999.00000   -999.00000
   2591.50000    -29.84400      4.12650      3.79210      3.90500    116.20940     51.93380   -999.00000   -999.00000   -999.00000   -999.00000   -999.00000
   2592.00000    -29.84850      4.15360      3.79590      3.92200    116.77030     42.62870   -999.00000   -999.00000   -999.00000   -999.00000   -999.00000
   2592.50000    -29.75860      4.20550      3.79970      3.93910    117.41160     32.02240   -999.00000   -999.00000   -999.00000   -999.00000   -999.00000
   2593.00000    -29.46770      4.25810      3.84590      3.95630    117.72580     44.84000   -999.00000   -999.00000   -999.00000   -999.00000   -999.00000
   2593.50000    -29.08420      4.32030      3.89370      3.97350    118.50100     44.78250   -999.00000   -999.00000   -999.00000   -999.00000   -999.00000
   2594.00000    -28.64510      4.39230      3.94210      3.99090    119.48050     46.03810   -999.00000   -999.00000   -999.00000   -999.00000   -999.00000
   2594.50000    -28.25450      4.46300      3.99120      4.06550    119.99310     47.54150   -999.00000   -999.00000   -999.00000   -999.00000   -999.00000
   2595.00000    -27.80800      4.47310      4.04080      4.14700    120.67120     47.99420   -999.00000   -999.00000   -999.00000   -999.00000   -999.00000
   2595.50000    -27.54710      4.50660      4.08650      4.20530    121.06510     47.40460   -999.00000   -999.00000   -999.00000   -999.00000   -999.00000
   2596.00000    -29.11710      4.50140      4.05770      4.18090    121.17580     46.81490   -999.00000   -999.00000   -999.00000   -999.00000   -999.00000
   2596.50000    -32.88160      4.48070      4.02910      4.13570    121.64160     46.22530   -999.00000   -999.00000   -999.00000   -999.00000   -999.00000
