~VERSION INFORMATION
 VERS.                           2.00:        CWLS LOG ASCII STANDARD - VERSION 2.00
 WRAP.                             NO:        ONE LINE PER DEPTH STEP
~WELL INFORMATION
#MNEM.UNIT                   DATA             INFORMATION
#----------             --------------        ------------------------------
 STRT.F                       98.0000:        START DEPTH
 STOP.F                     7393.0000:        STOP DEPTH
 STEP.F                        0.5000:        STEP VALUE
 NULL.                      -999.2500:        NULL VALUE
 COMP.     HUKSY OIL COMPANY OPERATOR:        COMPANY  
 LOC .                    3  13N   2W:        LOCATION   
 DATE.                         3/2/78:        LOG DATE 
 WELL.     NORTH KALIKPIK TEST WELL 1:        WELL     
 UWI .                   501032001100:        UNIQUE WELL ID 
 API .                   501032001100:        UNIQUE WELL IDENTIFIER 
 FLD .                        WILDCAT:        FIELD    
 CNTY.                    NORTH SLOPE:        COUNTY  
 STAT.                         ALASKA:        STATE   
 CTRY.                            USA:        COUNTRY 
 OPER.     HUKSY OIL COMPANY OPERATOR:        OPERATOR  
 SRVC.                   SCHLUMBERGER:        SERVICE COMPANY 
 LAT .                         0.0000:        LATITUDE
 LON .                         0.0000:        LONGITUDE
 DIGS.               CENTER LINE DATA:        DIGITIZING COMPANY 
~CURVE INFORMATION      
#MNEM        .UNIT         API CODE           CURVE DESCRIPTION
#-----------------      --------------        ------------------------------
 DEPT        .F                      :        1  DEPTH
 SP          .MV                     :        2  
 LL8         .OHMM                   :        3  
 ILD         .OHMM                   :        4  
 ILM         .OHMM                   :        5  
 DT          .US/F                   :        6  
 GR          .GAPI                   :        7  
 CALI        .IN                     :        8  
 DRHO        .G/C3                   :        9  
 RHOB        .G/C3                   :        10 
 NPHI        .%                      :        11 
 DPHI        .%                      :        12 
~PARAMETER INFORMATION       
~OTHER INFORMATION
~A 
# ...
   5453.00000    -39.62380      5.25730      4.32830      4.62200     92.88250    101.45040     16.02710      0.03440      2.55150     31.91650      5.03430
   5453.50000    -39.51110      5.49220      4.38620      4.67880     93.77100     99.10330     15.92080      0.04880      2.56100     31.72500      4.39330
   5454.00000    -39.42610      5.60510      4.43720      4.73330     95.34660     97.37060     15.76520      0.06320      2.58340     31.47120      4.71140
   5454.50000    -39.39770      5.48160      4.48890      4.78850     96.19630     95.79740     15.85640      0.06550      2.58180     30.95840      4.09740
   5455.00000    -39.37210      5.24270      4.54110      4.84430     95.25980     95.47750     16.12760      0.05740      2.58220     31.69040      4.75100
   5455.50000    -39.38900      5.12860      4.59390      4.90070     94.47980     95.64260     15.89730      0.07100      2.58270     32.55630      6.60700
   5456.00000    -39.27130      5.15670      4.64730      4.95780     92.45010     95.63250     15.66420      0.06200      2.56670     32.68040      7.97460
   5456.50000    -39.48040      5.29390      4.66700      4.96960     89.84270     97.32400     15.79490      0.03450      2.53170     31.51510      7.03660
   5457.00000    -39.54880      5.43470      4.65840      4.96040     88.55480     98.89430     15.90320      0.02700      2.53130     30.63030      6.87280
   5457.50000    -39.59970      5.46750      4.64980      4.95130     89.97640     98.98320     15.62180      0.02900      2.54060     29.85340      6.44750
   5458.00000    -39.66690      5.36610      4.64130      4.94220     91.63480     99.51950     15.47010      0.01980      2.54660     29.90400      5.29260
   5458.50000    -39.75900      5.22930      4.63270      4.93310     93.11820    101.01740     15.42590      0.03150      2.56230     30.04250      4.35070
   5459.00000    -39.87100      5.11530      4.62420      4.92400     94.24520    102.15900     15.71700      0.03980      2.57410     30.43180      2.13650
   5459.50000    -39.98300      5.15380      4.65040      4.96730     92.62080    102.93510     15.50790      0.05140      2.59540     30.19640      1.33030
   5460.00000    -40.09440      5.19260      4.72040      5.04200     91.14400    104.33710     15.40790      0.08520      2.63690     29.59590      2.98670
   5460.50000    -39.91260      5.46490      4.79140      5.11780     93.31880    105.65580     15.42880      0.07790      2.61840     28.99400      4.30230
   5461.00000    -39.74910      5.79790      4.86350      5.19480     91.56820    106.15640     15.48380      0.05930      2.59490     29.64860      3.42940
   5461.50000    -39.60310      6.15110      4.93660      5.27290     89.59790    105.68770     15.73250      0.05190      2.59130     30.08320      3.91410
   5462.00000    -39.42290      6.33550      5.01090      5.35220     90.40610    104.75520     15.51060      0.06200      2.60220     30.37610      5.39430
   5462.50000    -39.37540      5.96270      5.08620      5.43270     91.54530    102.56330     15.80370      0.04600      2.58160     30.67600      7.11630
   5463.00000    -39.36200      5.77280      5.09690      5.42720     93.36910     99.57240     15.75410      0.02630      2.55170     30.69660      6.11140
   5463.50000    -39.32980      5.80910      5.09090      5.42080     96.68820     97.09310     15.59080      0.01630      2.54380     31.92170      5.18470
   5464.00000    -39.32700      5.84550      5.08490      5.41440     96.39360     96.17930     15.49090      0.03180      2.56010     33.53550      4.37600
   5464.50000    -39.38550      5.87960      5.07890      5.40800     94.79360     98.23670     15.27830      0.05600      2.57510     33.82540      5.81920
   5465.00000    -39.49390      5.90610      5.07290      5.40160     93.35740    100.43480     15.46730      0.06990      2.57190     32.99770      5.29000
   5465.50000    -39.63060      5.93270      5.06690      5.39530     93.87180    102.21190     15.78860      0.05310      2.55830     31.94770      4.33530
   5466.00000    -39.76210      6.20090      5.06090      5.38890     94.25760    103.61490     15.44010      0.06520      2.57080     30.87860      4.86690
   5466.50000    -39.79490      6.58270      5.02760      5.36180     94.53120    103.20680     15.70630      0.06610      2.57990     31.20120      4.97140
   5467.00000    -39.74870      6.46290      4.97530      5.30600     94.86120    100.48330     15.70500      0.06010      2.57470     32.26470      5.10790
   5467.50000    -39.70570      5.62290      4.92350      5.25080     95.00570     98.41430     15.60320      0.06290      2.57120     33.51530      4.89220
   5468.00000    -39.66260      5.41010      4.87230      5.19610     95.41980     97.76440     15.49040      0.07170      2.57120     34.17570      5.65430
   5468.50000    -39.61950      5.24760      4.82160      5.14210     95.48470     97.16600     15.72960      0.07090      2.56980     34.67140      6.76250
   5469.00000    -39.57640      5.32420      4.77140      5.08860     94.41210     97.65150     15.80020      0.05910      2.55850     34.63520      7.59010
   5469.50000    -39.53330      5.56600      4.72170      5.03560     93.58430     98.33720     15.52720      0.04170      2.54030     33.81710      8.42020
   5470.00000    -39.49020      5.81870      4.67260      4.98320     92.82660     99.61870     15.32380      0.03010      2.52420     33.23650      8.84100
   5470.50000    -39.44710      5.64310      4.66000      4.96210     93.49520    101.00730     15.49320      0.02140      2.51510     33.09980      7.56010
   5471.00000    -39.40400      5.26730      4.65420      4.95590     94.07440    101.94580     15.55200      0.01980      2.51730     33.76090      4.53800
   5471.50000    -39.37770      5.45830      4.64850      4.94970     94.56810    101.47940     15.79020      0.02930      2.54230     34.54970      2.55610
   5472.00000    -39.40110      5.60210      4.64270      4.94360     94.81860    100.78150     15.25280      0.08140      2.59390     35.32940      2.79720
   5472.50000    -39.42450      5.46450      4.63690      4.93740     95.01590    101.09980     15.41060      0.09880      2.61880     35.64410      3.20130
   5473.00000    -39.44800      5.33020      4.63110      4.93130     94.90160    101.82750     15.26900      0.09180      2.60540     35.16060      4.27370
   5473.50000    -39.27900      5.40190      4.62540      4.92520     94.27650    102.23380     15.25000      0.10190      2.59860     34.44720      5.57130
   5474.00000    -39.06520      5.61620      4.62800      4.92790     92.95640    102.85740     15.15400      0.08480      2.57540     33.77650      5.72620
   5474.50000    -39.30470      5.83900      4.63060      4.93060     94.51830    102.38250     15.04140      0.06560      2.56190     33.40970      4.86750
   5475.00000    -39.41880      5.72230      4.63320      4.93340     95.28840    101.19630     14.86980      0.06980      2.56430     33.93090      4.15050
   5475.50000    -39.39240      5.57180      4.63580      4.93620     95.26760    101.03300     14.99990      0.08740      2.58040     34.26890      5.89690
   5476.00000    -39.38310      5.42530      4.63850      4.93900     95.30950    101.13540     14.96010      0.09080      2.56790     34.74070      5.70040
   5476.50000    -39.48160      5.40240      4.64110      4.94180     95.17810    100.84860     15.14300      0.07370      2.55850     35.41050      6.48870
   5477.00000    -39.53870      5.42960      4.64370      4.94460     93.86690    101.11630     14.95710      0.07860      2.55440     35.84540      8.50510
   5477.50000    -39.38390      5.45700      4.64630      4.94740     94.87410    101.43430     15.41360      0.06450      2.52990     35.23860      8.25550
   5478.00000    -39.21160      5.57600      4.64890      4.95010     95.60870    101.96860     15.80970      0.05730      2.51370     34.69840      7.20710
