~VERSION INFORMATION
 VERS.                           2.00:        CWLS LOG ASCII STANDARD - VERSION 2.00
 WRAP.                             NO:        ONE LINE PER DEPTH STEP
~WELL INFORMATION
#MNEM.UNIT                   DATA             INFORMATION
#----------             --------------        ------------------------------
 STRT.F                       98.0000:        START DEPTH
 STOP.F                     7393.0000:        STOP DEPTH
 STEP.F                        0.5000:        STEP VALUE
 NULL.                      -999.2500:        NULL VALUE
 COMP.     HUKSY OIL COMPANY OPERATOR:        COMPANY  
 LOC .                    3  13N   2W:        LOCATION   
 DATE.                         3/2/78:        LOG DATE 
 WELL.     NORTH KALIKPIK TEST WELL 1:        WELL     
 UWI .                   501032001100:        UNIQUE WELL ID 
 API .                   501032001100:        UNIQUE WELL IDENTIFIER 
 FLD .                        WILDCAT:        FIELD    
 CNTY.                    NORTH SLOPE:        COUNTY  
 STAT.                         ALASKA:        STATE   
 CTRY.                            USA:        COUNTRY 
 OPER.     HUKSY OIL COMPANY OPERATOR:        OPERATOR  
 SRVC.                   SCHLUMBERGER:        SERVICE COMPANY 
 LAT .                         0.0000:        LATITUDE
 LON .                         0.0000:        LONGITUDE
 DIGS.               CENTER LINE DATA:        DIGITIZING COMPANY 
~CURVE INFORMATION      
#MNEM        .UNIT         API CODE           CURVE DESCRIPTION
#-----------------      --------------        ------------------------------
 DEPT        .F                      :        1  DEPTH
 SP          .MV                     :        2  
 LL8         .OHMM                   :        3  
 ILD         .OHMM                   :        4  
 ILM         .OHMM                   :        5  
 DT          .US/F                   :        6  
 GR          .GAPI                   :        7  
 CALI        .IN                     :        8  
 DRHO        .G/C3                   :        9  
 RHOB        .G/C3                   :        10 
 NPHI        .%                      :        11 
 DPHI        .%                      :        12 
~PARAMETER INFORMATION       
~OTHER INFORMATION
~A 
# ...
    608.00000    -54.31620      3.17770      2.87550      2.64560    171.83360     83.41130   -999.00000   -999.00000   -999.00000   -999.00000   -999.00000
    608.50000    -55.26050      3.09380      2.86150      2.63460    167.30220     84.01350   -999.00000   -999.00000   -999.00000   -999.00000   -999.00000
    609.00000    -56.16910      3.04990      2.84760      2.62360    165.32150     82.79520   -999.00000   -999.00000   -999.00000   -999.00000   -999.00000
    609.50000    -56.51250      3.05510      2.83380      2.62460    166.31340     82.08850   -999.00000   -999.00000   -999.00000   -999.00000   -999.00000
    610.00000    -56.58670      3.06020      2.82000      2.62610    167.99690     82.87610   -999.00000   -999.00000   -999.00000   -999.00000   -999.00000
    610.50000    -56.66060      3.06610      2.80630      2.62760    169.48560     83.06510   -999.00000   -999.00000   -999.00000   -999.00000   -999.00000
    611.00000    -56.96460      3.08130      2.80490      2.62910    170.37360     81.65280   -999.00000   -999.00000   -999.00000   -999.00000   -999.00000
    611.50000    -57.51820      3.09400      2.81100      2.63060    170.41341     79.49920   -999.00000   -999.00000   -999.00000   -999.00000   -999.00000
    612.00000    -58.02390      3.10180      2.81710      2.63210    169.68510     78.26790   -999.00000   -999.00000   -999.00000   -999.00000   -999.00000
    612.50000    -58.33890      3.10960      2.82090      2.63360    168.02251     79.81510   -999.00000   -999.00000   -999.00000   -999.00000   -999.00000
    613.00000    -58.40060      3.11740      2.82470      2.63510    165.05130     80.02750   -999.00000   -999.00000   -999.00000   -999.00000   -999.00000
    613.50000    -58.45380      3.12530      2.82850      2.63660    164.72340     80.01430   -999.00000   -999.00000   -999.00000   -999.00000   -999.00000
    614.00000    -58.51530      3.13320      2.83230      2.63820    165.08121     79.27440   -999.00000   -999.00000   -999.00000   -999.00000   -999.00000
    614.50000    -58.57780      3.14110      2.83620      2.63350    165.69830     78.98410   -999.00000   -999.00000   -999.00000   -999.00000   -999.00000
    615.00000    -58.44370      3.14900      2.84000      2.62850    166.82629     79.31770   -999.00000   -999.00000   -999.00000   -999.00000   -999.00000
    615.50000    -58.19450      3.15690      2.84380      2.62340    166.00121     79.62980   -999.00000   -999.00000   -999.00000   -999.00000   -999.00000
    616.00000    -57.91990      3.16520      2.84770      2.61830    165.80600     78.81180   -999.00000   -999.00000   -999.00000   -999.00000   -999.00000
    616.50000    -57.80040      3.17420      2.85150      2.61330    166.41560     78.09760   -999.00000   -999.00000   -999.00000   -999.00000   -999.00000
    617.00000    -57.81300      3.18320      2.85540      2.60830    168.54221     78.92320   -999.00000   -999.00000   -999.00000   -999.00000   -999.00000
    617.50000    -57.87210      3.18890      2.85920      2.60550    170.20010     79.08940   -999.00000   -999.00000   -999.00000   -999.00000   -999.00000
    618.00000    -58.12190      3.18000      2.86310      2.61000    171.08820     78.49860   -999.00000   -999.00000   -999.00000   -999.00000   -999.00000
    618.50000    -58.34420      3.17120      2.86700      2.61920    170.30690     78.33580   -999.00000   -999.00000   -999.00000   -999.00000   -999.00000
    619.00000    -58.47280      3.16240      2.87260      2.64420    168.48790     79.27040   -999.00000   -999.00000   -999.00000   -999.00000   -999.00000
    619.50000    -58.58800      3.15360      2.88340      2.65470    167.74290     80.31790   -999.00000   -999.00000   -999.00000   -999.00000   -999.00000
    620.00000    -58.65560      3.17970      2.89430      2.66530    167.78770     80.51980   -999.00000   -999.00000   -999.00000   -999.00000   -999.00000
    620.50000    -58.73420      3.22080      2.90520      2.66970    168.17480     78.32570   -999.00000   -999.00000   -999.00000   -999.00000   -999.00000
    621.00000    -58.85750      3.23170      2.91610      2.72650    168.39909     74.96370   -999.00000   -999.00000   -999.00000   -999.00000   -999.00000
    621.50000    -58.98070      3.23680      2.92710      2.73100    169.19450     73.87070   -999.00000   -999.00000   -999.00000   -999.00000   -999.00000
    622.00000    -58.96320      3.24770      2.93810      2.72820    169.00710     74.51440   -999.00000   -999.00000   -999.00000   -999.00000   -999.00000
    622.50000    -59.02840      3.25860      2.94080      2.72540    168.64830     76.35110   -999.00000   -999.00000   -999.00000   -999.00000   -999.00000
    623.00000    -58.99240      3.26060      2.93800      2.72260    168.39481     78.04530   -999.00000   -999.00000   -999.00000   -999.00000   -999.00000
    623.50000    -58.77380      3.25900      2.93510      2.71980    167.64700     78.38390   -999.00000   -999.00000   -999.00000   -999.00000   -999.00000
    624.00000    -58.38980      3.25740      2.93230      2.71700    167.75439     76.47930   -999.00000   -999.00000   -999.00000   -999.00000   -999.00000
    624.50000    -57.86410      3.25580      2.92940      2.71420    167.86040     73.05720   -999.00000   -999.00000   -999.00000   -999.00000   -999.00000
    625.00000    -57.25430      3.25410      2.92660      2.71150    168.00090     70.49070   -999.00000   -999.00000   -999.00000   -999.00000   -999.00000
    625.50000    -56.10790      3.25660      2.92380      2.70730    169.96761     68.91490   -999.00000   -999.00000   -999.00000   -999.00000   -999.00000
    626.00000    -54.10490      3.22010      2.92090      2.70310    170.59171     66.76180   -999.00000   -999.00000   -999.00000   -999.00000   -999.00000
    626.50000    -53.03490      3.14550      2.91810      2.69890    168.72180     67.75600   -999.00000   -999.00000   -999.00000   -999.00000   -999.00000
    627.00000    -52.71330      3.12190      2.91530      2.70150    168.07491     68.09220   -999.00000   -999.00000   -999.00000   -999.00000   -999.00000
    627.50000    -52.67000      3.27980      2.91240      2.72040    167.85190     67.70920   -999.00000   -999.00000   -999.00000   -999.00000   -999.00000
    628.00000    -52.59840      3.39250      2.90960      2.73950    172.64890     67.18890   -999.00000   -999.00000   -999.00000   -999.00000   -999.00000
    628.50000    -52.57330      3.42660      2.90680      2.75700    175.26311     66.79500   -999.00000   -999.00000   -999.00000   -999.00000   -999.00000
    629.00000    -52.82370      3.38370      2.90400      2.74050    178.04800     68.17920   -999.00000   -999.00000   -999.00000   -999.00000   -999.00000
    629.50000    -53.44230      3.42720      2.90110      2.72940    182.29680     70.50720   -999.00000   -999.00000   -999.00000   -999.00000   -999.00000
    630.00000    -53.90740      3.54870      2.89830      2.73280    179.50169     71.95510   -999.00000   -999.00000   -999.00000   -999.00000   -999.00000
    630.50000    -53.92640      3.53970      2.89550      2.73660    177.87669     69.95740   -999.00000   -999.00000   -999.00000   -999.00000   -999.00000
    631.00000    -53.37740      3.40250      2.89270      2.71440    172.32401     69.92020   -999.00000   -999.00000   -999.00000   -999.00000   -999.00000
    631.50000    -53.25000      3.36870      2.88990      2.71320    168.42261     71.37580   -999.00000   -999.00000   -999.00000   -999.00000   -999.00000
    632.00000    -53.22370      3.44950      2.88700      2.71310    167.50470     73.30310   -999.00000   -999.00000   -999.00000   -999.00000   -999.00000
    632.50000    -53.04480      3.47070      2.88420      2.71310    166.14549     74.60740   -999.00000   -999.00000   -999.00000   -999.00000   -999.00000
    633.00000    -52.76430      3.37540      2.88460      2.71300    167.30890     73.65670   -999.00000   -999.00000   -999.00000   -999.00000   -999.00000
