~VERSION INFORMATION
 VERS.                           2.00:        CWLS LOG ASCII STANDARD - VERSION 2.00
 WRAP.                             NO:        ONE LINE PER DEPTH STEP
~WELL INFORMATION
#MNEM.UNIT                   DATA             INFORMATION
#----------             --------------        ------------------------------
 STRT.F                       98.0000:        START DEPTH
 STOP.F                     7393.0000:        STOP DEPTH
 STEP.F                        0.5000:        STEP VALUE
 NULL.                      -999.2500:        NULL VALUE
 COMP.     HUKSY OIL COMPANY OPERATOR:        COMPANY  
 LOC .                    3  13N   2W:        LOCATION   
 DATE.                         3/2/78:        LOG DATE 
 WELL.     NORTH KALIKPIK TEST WELL 1:        WELL     
 UWI .                   501032001100:        UNIQUE WELL ID 
 API .                   501032001100:        UNIQUE WELL IDENTIFIER 
 FLD .                        WILDCAT:        FIELD    
 CNTY.                    NORTH SLOPE:        COUNTY  
 STAT.                         ALASKA:        STATE   
 CTRY.                            USA:        COUNTRY 
 OPER.     HUKSY OIL COMPANY OPERATOR:        OPERATOR  
 SRVC.                   SCHLUMBERGER:        SERVICE COMPANY 
 LAT .                         0.0000:        LATITUDE
 LON .                         0.0000:        LONGITUDE
 DIGS.               CENTER LINE DATA:        DIGITIZING COMPANY 
~CURVE INFORMATION      
#MNEM        .UNIT         API CODE           CURVE DESCRIPTION
#-----------------      --------------        ------------------------------
 DEPT        .F                      :        1  DEPTH
 SP          .MV                     :        2  
 LL8         .OHMM                   :        3  
 ILD         .OHMM                   :        4  
 ILM         .OHMM                   :        5  
 DT          .US/F                   :        6  
 GR          .GAPI                   :        7  
 CALI        .IN                     :        8  
 DRHO        .G/C3                   :        9  
 RHOB        .G/C3                   :        10 
 NPHI        .%                      :        11 
 DPHI        .%                      :        12 
~PARAMETER INFORMATION       
~OTHER INFORMATION
~A 
# ...
   4484.00000    -47.04160      4.05750      3.46930      3.76180    108.14230     76.00530     18.11380      0.08640      2.36670     46.66040     18.48350
   4484.50000    -47.10800      4.09670      3.51380      3.81010    106.90840     77.52860     18.34150      0.06920      2.35930     46.52590     17.06380
   4485.00000    -47.01780      4.13630      3.55900      3.85910    105.47630     78.65980     18.50830      0.08590      2.36600     47.46200     16.81920
   4485.50000    -46.85280      4.17630      3.60470      3.90870    106.82710     79.07180     18.58180      0.11360      2.37600     48.42350     17.42300
   4486.00000    -46.91290      4.21660      3.63230      3.92880    106.67210     80.27120     18.54850      0.13080      2.37010     49.59950     17.19110
   4486.50000    -46.91830      4.25740      3.65020      3.94820    105.90940     82.16520     18.48960      0.12810      2.36860     50.62600     16.61740
   4487.00000    -46.67210      4.25020      3.66830      3.96770    107.40490     83.41350     18.38960      0.12050      2.37520     52.04170     17.09500
   4487.50000    -46.49080      4.24120      3.68640      3.98730    106.43210     83.02150     18.32950      0.09300      2.37590     53.28130     17.59990
   4488.00000    -46.32950      4.20610      3.70460      4.00710    104.74010     81.90220     18.33940      0.07040      2.36760     52.40790     18.11780
   4488.50000    -46.12100      4.10140      3.72290      4.02690    106.23870     79.67490     18.35590      0.06190      2.35800     51.22810     18.66980
   4489.00000    -45.98350      3.99930      3.74130      4.04680    106.17840     77.07430     18.36070      0.06390      2.34800     49.51630     19.14960
   4489.50000    -45.95020      3.99070      3.75980      4.06680    105.17800     77.23320     18.33900      0.07190      2.33910     49.27910     19.37690
   4490.00000    -45.90420      4.05220      3.75310      4.06040    104.17760     78.71220     18.24160      0.06200      2.32910     49.68130     18.92790
   4490.50000    -45.83500      4.11470      3.73030      4.03560    103.51570     78.94270     18.17550      0.05900      2.33810     50.25850     17.90620
   4491.00000    -45.88700      4.17810      3.70750      4.01110    104.52630     77.69780     18.14210      0.04910      2.34370     50.70090     17.39960
   4491.50000    -46.16020      4.24250      3.68500      3.98660    105.85570     75.75920     18.16880      0.04980      2.36540     50.18300     17.89430
   4492.00000    -46.64640      4.22730      3.66250      3.96230    105.28930     74.83040     18.16860      0.04560      2.36310     49.53910     18.90900
   4492.50000    -47.08460      4.20070      3.64020      3.93820    105.09650     76.86540     18.14740      0.04100      2.35000     49.70750     19.35300
   4493.00000    -47.41510      4.17430      3.61800      3.91420    107.98190     78.23900     18.18430      0.03340      2.33680     50.77480     19.42170
   4493.50000    -47.74200      4.13120      3.59600      3.89040    110.24630     78.65920     18.31990      0.04930      2.33340     51.16290     19.65320
   4494.00000    -47.92190      4.08250      3.57410      3.86670    110.43130     79.30210     18.33860      0.07190      2.32870     50.96110     20.75230
   4494.50000    -47.91750      4.03430      3.55830      3.84720    110.15820     79.72440     18.35720      0.06640      2.31510     51.59930     20.65610
   4495.00000    -47.85290      3.98670      3.55090      3.83930    108.05930     79.52700     18.35810      0.06280      2.30610     52.24020     20.07900
   4495.50000    -47.78540      3.97100      3.54350      3.83130    104.35220     79.38860     18.31300      0.07620      2.31900     51.99010     20.34900
   4496.00000    -47.64710      3.96630      3.53620      3.82340    101.96980     80.16560     18.26790      0.07670      2.32120     50.58360     19.73640
   4496.50000    -47.42190      4.01670      3.58050      3.89160    104.19440     80.55060     18.24540      0.07630      2.32080     49.11100     19.41630
   4497.00000    -47.28180      4.08670      3.64490      3.96160    105.11340     79.96270     18.18930      0.08870      2.33190     48.44790     19.11390
   4497.50000    -47.14180      4.15790      3.71040      4.03280    106.66410     78.60460     18.05800      0.09150      2.33480     47.50040     18.70510
   4498.00000    -47.07410      4.22930      3.75290      4.05730    108.99740     77.11730     17.94230      0.08080      2.34270     48.37480     17.74420
   4498.50000    -47.03430      4.24220      3.75000      4.05420    105.56960     77.05540     17.88240      0.07470      2.35280     49.14490     16.09860
   4499.00000    -46.95070      4.25520      3.74710      4.05110    104.08220     78.95860     17.89390      0.08110      2.37050     49.92720     15.36440
   4499.50000    -46.88450      4.26810      3.74420      4.04800    106.96920     80.30620     17.90150      0.08940      2.39950     50.45100     16.38500
   4500.00000    -46.95610      4.25090      3.74140      4.04490    109.26170     81.23830     17.88410      0.08650      2.38940     50.19390     17.81140
   4500.50000    -47.06070      4.23360      3.73850      4.04180    110.93840     80.69460     17.88900      0.07650      2.37210     48.39860     17.60780
   4501.00000    -47.19850      4.21630      3.73560      4.03870    109.25130     79.36460     17.90110      0.06540      2.35700     46.32600     17.30010
   4501.50000    -47.20280      4.22470      3.73280      4.03560    106.52880     77.71750     17.91200      0.07640      2.36680     44.97520     16.58430
   4502.00000    -47.12750      4.24350      3.75410      4.07860    104.91700     77.09010     17.91150      0.08450      2.37200     44.50560     16.33780
   4502.50000    -47.10910      4.26380      3.81770      4.14780    103.84760     76.92470     17.91110      0.10160      2.39120     44.93820     17.33830
   4503.00000    -47.16730      4.33740      3.88230      4.21810    102.02080     77.31340     17.87810      0.09040      2.38170     45.37090     15.90290
   4503.50000    -47.04930      4.41220      3.94800      4.28960    101.10320     79.41630     17.79210      0.08390      2.38070     46.11910     15.41820
   4504.00000    -46.77480      4.48180      4.01480      4.36240    103.33240     80.21190     17.71790      0.09350      2.39670     46.88600     14.58820
   4504.50000    -46.51400      4.54620      4.08280      4.43640    102.51070     79.97970     17.65400      0.08820      2.40730     47.34590     14.41780
   4505.00000    -46.46740      4.61160      4.11890      4.45350    103.57040     79.32830     17.61460      0.09540      2.41870     47.62580     14.99670
   4505.50000    -46.42520      4.67790      4.10980      4.44360    101.92770     77.97390     17.56840      0.08830      2.41470     47.50620     15.81310
   4506.00000    -46.31230      4.68180      4.10060      4.43380    101.42990     75.91010     17.52290      0.07180      2.40140     47.93200     16.42760
   4506.50000    -46.08410      4.68000      4.09150      4.42390    103.50070     74.83840     17.49490      0.05340      2.39010     48.76130     15.90090
   4507.00000    -45.84540      4.61990      4.08240      4.41410    102.43440     75.05610     17.46690      0.04360      2.38740     49.61950     15.11160
   4507.50000    -45.66600      4.56050      4.07340      4.40430    103.38260     76.55870     17.41020      0.05580      2.39690     50.53970     15.89940
   4508.00000    -45.56410      4.50190      4.06430      4.39450    104.28340     77.70570     17.39700      0.06110      2.39520     51.05410     15.91520
   4508.50000    -45.50150      4.44400      4.05530      4.38470    105.15330     78.33120     17.39620      0.05860      2.39220     51.65970     15.58070
   4509.00000    -45.67820      4.45600      3.98230      4.34470    107.69250     77.43820     17.39160      0.05240      2.39210     51.96290     16.19330
