~VERSION INFORMATION
 VERS.                           2.00:        CWLS LOG ASCII STANDARD - VERSION 2.00
 WRAP.                             NO:        ONE LINE PER DEPTH STEP
~WELL INFORMATION
#MNEM.UNIT                   DATA             INFORMATION
#----------             --------------        ------------------------------
 STRT.F                       98.0000:        START DEPTH
 STOP.F                     7393.0000:        STOP DEPTH
 STEP.F                        0.5000:        STEP VALUE
 NULL.                      -999.2500:        NULL VALUE
 COMP.     HUKSY OIL COMPANY OPERATOR:        COMPANY  
 LOC .                    3  13N   2W:        LOCATION   
 DATE.                         3/2/78:        LOG DATE 
 WELL.     NORTH KALIKPIK TEST WELL 1:        WELL     
 UWI .                   501032001100:        UNIQUE WELL ID 
 API .                   501032001100:        UNIQUE WELL IDENTIFIER 
 FLD .                        WILDCAT:        FIELD    
 CNTY.                    NORTH SLOPE:        COUNTY  
 STAT.                         ALASKA:        STATE   
 CTRY.                            USA:        COUNTRY 
 OPER.     HUKSY OIL COMPANY OPERATOR:        OPERATOR  
 SRVC.                   SCHLUMBERGER:        SERVICE COMPANY 
 LAT .                         0.0000:        LATITUDE
 LON .                         0.0000:        LONGITUDE
 DIGS.               CENTER LINE DATA:        DIGITIZING COMPANY 
~CURVE INFORMATION      
#MNEM        .UNIT         API CODE           CURVE DESCRIPTION
#-----------------      --------------        ------------------------------
 DEPT        .F                      :        1  DEPTH
 SP          .MV                     :        2  
 LL8         .OHMM                   :        3  
 ILD         .OHMM                   :        4  
 ILM         .OHMM                   :        5  
 DT          .US/F                   :        6  
 GR          .GAPI                   :        7  
 CALI        .IN                     :        8  
 DRHO        .G/C3                   :        9  
 RHOB        .G/C3                   :        10 
 NPHI        .%                      :        11 
 DPHI        .%                      :        12 
~PARAMETER INFORMATION       
~OTHER INFORMATION
~A 
# ...
   6396.50000    -31.29330      7.07040      5.80300      6.21660     93.26230    101.40160     14.21880      0.16940      2.52320     32.88190     10.53350
   6397.00000    -31.31380      7.12880      5.61650      6.01680     93.32150    106.29240     14.40480      0.18600      2.49620     33.40540     11.81150
   6397.50000    -31.65560      7.06630      5.43590      5.82340     93.54660    109.81880     14.75520      0.20290      2.47870     33.16140     14.55370
   6398.00000    -31.74870      6.79620      5.26120      5.63620     94.39990    109.06080     14.94780      0.21500      2.44220     32.68130     15.05600
   6398.50000    -31.77140      6.51420      5.09200      5.45500     96.13740    108.33070     14.99500      0.20270      2.41270     33.50180     16.45490
   6399.00000    -31.68410      6.24390      4.92830      5.27970     97.92980    108.23300     14.97130      0.20710      2.40050     35.27570     18.61080
   6399.50000    -31.64270      6.05400      4.76960      5.11000    100.16500    109.00840     14.94770      0.19180      2.37660     36.56380     20.57660
   6400.00000    -31.61600      6.06660      4.61040      4.94350    101.16760    110.71320     15.23980      0.17370      2.32750     37.75360     19.51680
   6400.50000    -31.58930      5.91060      4.45650      4.77850    101.49860    112.31160     15.51270      0.16740      2.33570     39.23830     19.07550
   6401.00000    -31.41920      5.59340      4.30770      4.61900    100.72870    112.53620     15.79040      0.18050      2.34090     39.87270     19.48400
   6401.50000    -31.09550      5.28840      4.16390      4.46490     99.95880    112.49220     16.07760      0.17640      2.33830     40.23050     20.61630
   6402.00000    -30.93610      4.97310      4.02500      4.31580     99.12810    112.92680     15.92320      0.17380      2.32900     40.88740     20.53500
   6402.50000    -30.75710      4.67670      3.89060      4.17180     98.48150    114.58060     16.09180      0.15300      2.30960     41.43230     19.46060
   6403.00000    -30.85330      4.54870      3.76070      4.03260     99.19020    115.60820     16.16290      0.14770      2.32090     40.85630     18.30270
   6403.50000    -30.79360      4.49710      3.66670      3.89800     98.43620    116.13220     15.60250      0.14020      2.33650     40.27990     17.70560
   6404.00000    -30.77590      4.44590      3.64070      3.85430     97.41930    117.05220     15.42320      0.13730      2.35630     39.69780     17.45730
   6404.50000    -30.84940      4.54130      3.61480      3.82680     96.40240    115.46320     15.41570      0.13580      2.36710     39.23570     18.52590
   6405.00000    -31.06000      4.90030      3.58900      3.79960     97.02950    111.99000     15.64680      0.14660      2.35980     38.82340     20.13610
   6405.50000    -31.01450      5.08810      3.56350      3.77540     98.18290    111.37580     15.79430      0.16240      2.33810     38.45130     20.27600
   6406.00000    -30.96010      5.04620      3.60510      3.82090     99.09010    110.75170     15.76380      0.16060      2.31300     38.07930     19.18540
   6406.50000    -30.86260      5.00470      3.64860      3.86700     98.41220    109.15480     15.59060      0.17010      2.33270     38.41150     21.04710
   6407.00000    -30.77640      4.96350      3.69250      3.91360     97.73430    108.44570     15.67460      0.19170      2.32500     39.17350     19.75480
   6407.50000    -30.86960      4.92260      3.73710      3.96070     97.51840    107.50570     15.84200      0.16420      2.30080     38.88590     17.62800
   6408.00000    -30.94410      4.88000      3.70160      3.92170     98.32370    109.18240     15.45740      0.16750      2.34800     38.40420     17.53980
   6408.50000    -30.76200      4.82180      3.66360      3.88140     98.35190    111.08370     15.69910      0.18690      2.36030     38.68440     17.83800
   6409.00000    -30.66440      4.76430      3.62360      3.84080     97.53070    112.25490     16.09550      0.16600      2.35900     39.74570     16.11140
   6409.50000    -30.62570      4.70750      3.58040      3.79500     96.14200    112.81340     16.15550      0.14330      2.37170     38.68800     16.30550
   6410.00000    -30.55970      4.66200      3.53770      3.74980     95.32070    113.97880     15.97850      0.14750      2.39650     37.37430     17.87720
   6410.50000    -30.26080      4.63920      3.49550      3.70510     94.67700    114.61790     16.16800      0.12460      2.36660     35.96550     17.42210
   6411.00000    -30.21430      4.61650      3.45390      3.66090     94.33600    114.23100     16.38710      0.10140      2.36260     35.88830     15.17630
   6411.50000    -30.17410      4.59400      3.41270      3.61730     93.71320    112.41810     16.07960      0.09120      2.36920     36.23690     13.10670
   6412.00000    -30.23940      4.59060      3.39820      3.63530     93.09660    110.54360     15.86460      0.12540      2.41840     35.72880     14.83650
   6412.50000    -30.35810      4.64120      3.50330      3.74780     92.71390    110.28170     15.63500      0.15660      2.42280     35.35230     14.55610
   6413.00000    -30.42050      4.69240      3.61160      3.86380     92.97130    109.61650     15.63230      0.13110      2.39880     35.05120     14.33720
   6413.50000    -30.48100      4.74420      3.72330      3.98340     93.45640    106.81470     15.21030      0.15960      2.42100     34.89280     14.97770
   6414.00000    -30.52630      4.79650      3.82960      4.05450     93.92030    104.34590     15.29920      0.17310      2.41380     35.09560     15.85240
   6414.50000    -30.58180      4.95740      3.85740      4.08390     94.32900    103.08740     15.45200      0.17640      2.40440     35.29520     16.73650
   6415.00000    -30.72270      5.19720      3.88540      4.11360     94.49040    102.37600     15.67940      0.18700      2.38570     35.88370     15.85820
   6415.50000    -30.90300      5.44850      3.91360      4.14350     94.60250    102.82040     15.81720      0.19010      2.38530     36.53580     16.09420
   6416.00000    -31.19650      5.50740      3.94210      4.17360     95.03210    103.99250     15.90160      0.18930      2.39420     36.43560     16.34920
   6416.50000    -31.25080      5.32880      3.96820      4.19830     96.38940    105.13220     15.82350      0.18470      2.38850     36.31610     17.90540
   6417.00000    -31.10810      5.15610      3.96460      4.19450     98.18290    106.50330     15.30680      0.19130      2.37890     37.28370     19.75070
   6417.50000    -30.83100      4.98890      3.96110      4.19070    100.46830    108.40610     15.54320      0.19610      2.35280     38.28720     20.61110
   6418.00000    -30.62490      4.82720      3.88370      4.12930    101.84050    110.70520     15.71330      0.17300      2.31610     38.60010     19.42790
   6418.50000    -30.46770      4.79120      3.80720      4.04810    103.05290    113.61380     15.69360      0.14670      2.32430     39.33670     19.80150
   6419.00000    -30.40760      4.81050      3.73230      3.96850    102.85020    114.36800     15.54290      0.14240      2.33130     40.44400     17.98330
   6419.50000    -30.32860      4.82990      3.65880      3.89050    101.74420    113.01440     15.96070      0.13600      2.33760     41.72090     20.46080
   6420.00000    -30.22600      4.76150      3.58680      3.81400    100.63830    110.89470     15.88200      0.16360      2.35150     42.31380     22.89140
   6420.50000    -30.12610      4.60970      3.51620      3.73890     99.89790    110.90160     15.97120      0.14970      2.29060     42.62560     22.16670
   6421.00000    -29.97250      4.46280      3.44700      3.66530    100.87140    110.87980     16.29010      0.13560      2.27550     43.51060     19.92680
   6421.50000    -30.02160      4.38770      3.37910      3.59310    102.38860    111.47820     16.57300      0.13870      2.30130     43.68810     19.19500
