~VERSION INFORMATION
 VERS.                           2.00:        CWLS LOG ASCII STANDARD - VERSION 2.00
 WRAP.                             NO:        ONE LINE PER DEPTH STEP
~WELL INFORMATION
#MNEM.UNIT                   DATA             INFORMATION
#----------             --------------        ------------------------------
 STRT.F                       98.0000:        START DEPTH
 STOP.F                     7393.0000:        STOP DEPTH
 STEP.F                        0.5000:        STEP VALUE
 NULL.                      -999.2500:        NULL VALUE
 COMP.     HUKSY OIL COMPANY OPERATOR:        COMPANY  
 LOC .                    3  13N   2W:        LOCATION   
 DATE.                         3/2/78:        LOG DATE 
 WELL.     NORTH KALIKPIK TEST WELL 1:        WELL     
 UWI .                   501032001100:        UNIQUE WELL ID 
 API .                   501032001100:        UNIQUE WELL IDENTIFIER 
 FLD .                        WILDCAT:        FIELD    
 CNTY.                    NORTH SLOPE:        COUNTY  
 STAT.                         ALASKA:        STATE   
 CTRY.                            USA:        COUNTRY 
 OPER.     HUKSY OIL COMPANY OPERATOR:        OPERATOR  
 SRVC.                   SCHLUMBERGER:        SERVICE COMPANY 
 LAT .                         0.0000:        LATITUDE
 LON .                         0.0000:        LONGITUDE
 DIGS.               CENTER LINE DATA:        DIGITIZING COMPANY 
~CURVE INFORMATION      
#MNEM        .UNIT         API CODE           CURVE DESCRIPTION
#-----------------      --------------        ------------------------------
 DEPT        .F                      :        1  DEPTH
 SP          .MV                     :        2  
 LL8         .OHMM                   :        3  
 ILD         .OHMM                   :        4  
 ILM         .OHMM                   :        5  
 DT          .US/F                   :        6  
 GR          .GAPI                   :        7  
 CALI        .IN                     :        8  
 DRHO        .G/C3                   :        9  
 RHOB        .G/C3                   :        10 
 NPHI        .%                      :        11 
 DPHI        .%                      :        12 
~PARAMETER INFORMATION       
~OTHER INFORMATION
~A 
# ...
   1092.50000    -83.80540      3.06030      1.73400      1.61170    150.49850     39.78320   -999.00000   -999.00000   -999.00000   -999.00000   -999.00000
   1093.00000    -82.95740      2.99970      1.74660      1.62890    150.58121     40.55150   -999.00000   -999.00000   -999.00000   -999.00000   -999.00000
   1093.50000    -82.04580      3.00800      1.75920      1.64630    150.74860     41.18950   -999.00000   -999.00000   -999.00000   -999.00000   -999.00000
   1094.00000    -81.03690      3.04120      1.77190      1.66390    150.67329     40.83590   -999.00000   -999.00000   -999.00000   -999.00000   -999.00000
   1094.50000    -80.16530      3.02620      1.78470      1.68170    150.33740     40.48240   -999.00000   -999.00000   -999.00000   -999.00000   -999.00000
   1095.00000    -79.75580      3.02700      1.79760      1.69240    148.58479     40.12880   -999.00000   -999.00000   -999.00000   -999.00000   -999.00000
   1095.50000    -79.92810      3.04980      1.80060      1.68870    146.40860     40.32820   -999.00000   -999.00000   -999.00000   -999.00000   -999.00000
   1096.00000    -80.39510      3.04510      1.79310      1.68490    147.61690     41.15600   -999.00000   -999.00000   -999.00000   -999.00000   -999.00000
   1096.50000    -80.36560      3.00640      1.78560      1.68120    147.99570     41.35490   -999.00000   -999.00000   -999.00000   -999.00000   -999.00000
   1097.00000    -79.92340      2.98440      1.77810      1.67740    148.29350     41.76340   -999.00000   -999.00000   -999.00000   -999.00000   -999.00000
   1097.50000    -79.22290      2.97360      1.77060      1.67370    148.59140     43.66530   -999.00000   -999.00000   -999.00000   -999.00000   -999.00000
   1098.00000    -78.46170      2.95100      1.76310      1.67000    148.16620     43.90030   -999.00000   -999.00000   -999.00000   -999.00000   -999.00000
   1098.50000    -78.13880      2.95380      1.75400      1.67140    147.63190     43.06540   -999.00000   -999.00000   -999.00000   -999.00000   -999.00000
   1099.00000    -78.18960      2.94180      1.74490      1.68420    146.77290     43.39080   -999.00000   -999.00000   -999.00000   -999.00000   -999.00000
   1099.50000    -78.14820      2.91680      1.73480      1.69710    145.24480     44.61030   -999.00000   -999.00000   -999.00000   -999.00000   -999.00000
   1100.00000    -76.64810      2.89540      1.76590      1.72700    142.52940     45.07320   -999.00000   -999.00000   -999.00000   -999.00000   -999.00000
   1100.50000    -73.78190      2.93210      1.80410      1.79140    139.20120     45.48880   -999.00000   -999.00000   -999.00000   -999.00000   -999.00000
   1101.00000    -70.06400      2.96960      1.88770      1.85820    137.20700     46.32920   -999.00000   -999.00000   -999.00000   -999.00000   -999.00000
   1101.50000    -65.32680      2.99880      1.97750      1.92750    136.00200     46.21230   -999.00000   -999.00000   -999.00000   -999.00000   -999.00000
   1102.00000    -59.30680      3.04860      2.11290      2.02760    136.56709     44.50440   -999.00000   -999.00000   -999.00000   -999.00000   -999.00000
   1102.50000    -52.71070      3.09670      2.24420      2.14460    138.75240     42.72510   -999.00000   -999.00000   -999.00000   -999.00000   -999.00000
   1103.00000    -46.51710      3.08610      2.31000      2.26830    141.56149     44.66850   -999.00000   -999.00000   -999.00000   -999.00000   -999.00000
   1103.50000    -42.44020      3.01550      2.40560      2.37080    143.30969     48.93540   -999.00000   -999.00000   -999.00000   -999.00000   -999.00000
   1104.00000    -40.95250      2.95080      2.48160      2.42320    143.60240     53.79600   -999.00000   -999.00000   -999.00000   -999.00000   -999.00000
   1104.50000    -42.32710      2.99590      2.53110      2.47680    141.22540     58.67920   -999.00000   -999.00000   -999.00000   -999.00000   -999.00000
   1105.00000    -43.59890      3.22650      2.59040      2.48400    139.41510     60.53610   -999.00000   -999.00000   -999.00000   -999.00000   -999.00000
   1105.50000    -42.40780      3.26780      2.65100      2.44900    139.48950     61.54090   -999.00000   -999.00000   -999.00000   -999.00000   -999.00000
   1106.00000    -37.71590      3.07520      2.71300      2.41440    139.18100     62.03120   -999.00000   -999.00000   -999.00000   -999.00000   -999.00000
   1106.50000    -33.65260      2.90750      2.77650      2.44760    138.22470     62.52150   -999.00000   -999.00000   -999.00000   -999.00000   -999.00000
   1107.00000    -32.22080      3.01610      2.84150      2.54000    138.00180     63.01180   -999.00000   -999.00000   -999.00000   -999.00000   -999.00000
   1107.50000    -32.32400      3.16480      2.90540      2.63580    137.73430     63.36510   -999.00000   -999.00000   -999.00000   -999.00000   -999.00000
   1108.00000    -32.83480      3.35200      2.95260      2.73520    136.74139     64.71350   -999.00000   -999.00000   -999.00000   -999.00000   -999.00000
   1108.50000    -33.34560      3.40510      3.00060      2.80420    139.44980     67.81720   -999.00000   -999.00000   -999.00000   -999.00000   -999.00000
   1109.00000    -33.79670      3.35840      3.04940      2.83020    143.03979     69.59530   -999.00000   -999.00000   -999.00000   -999.00000   -999.00000
   1109.50000    -34.23650      3.36770      3.08950      2.85640    146.16460     69.19080   -999.00000   -999.00000   -999.00000   -999.00000   -999.00000
   1110.00000    -34.78220      3.43440      3.07290      2.85280    149.56000     68.88420   -999.00000   -999.00000   -999.00000   -999.00000   -999.00000
   1110.50000    -35.03280      3.49860      3.05640      2.83850    150.48880     68.64870   -999.00000   -999.00000   -999.00000   -999.00000   -999.00000
   1111.00000    -34.65840      3.39630      2.93100      2.76390    151.22369     67.23410   -999.00000   -999.00000   -999.00000   -999.00000   -999.00000
   1111.50000    -34.05700      3.30430      2.80390      2.68890    150.86630     64.69560   -999.00000   -999.00000   -999.00000   -999.00000   -999.00000
   1112.00000    -33.44160      3.26250      2.70860      2.58410    151.08400     66.08870   -999.00000   -999.00000   -999.00000   -999.00000   -999.00000
   1112.50000    -32.84390      3.21340      2.65050      2.52240    150.12500     68.00990   -999.00000   -999.00000   -999.00000   -999.00000   -999.00000
   1113.00000    -32.36100      3.16800      2.59360      2.46220    149.23880     68.18190   -999.00000   -999.00000   -999.00000   -999.00000   -999.00000
   1113.50000    -32.04090      3.17070      2.53960      2.40340    149.85870     67.88720   -999.00000   -999.00000   -999.00000   -999.00000   -999.00000
   1114.00000    -31.99660      3.17710      2.56870      2.40090    151.77049     67.98980   -999.00000   -999.00000   -999.00000   -999.00000   -999.00000
   1114.50000    -32.26200      3.18720      2.59810      2.42640    152.52631     68.72100   -999.00000   -999.00000   -999.00000   -999.00000   -999.00000
   1115.00000    -32.97840      3.23300      2.62780      2.45230    151.38950     68.68870   -999.00000   -999.00000   -999.00000   -999.00000   -999.00000
   1115.50000    -34.03380      3.26150      2.65790      2.47840    149.14030     66.73700   -999.00000   -999.00000   -999.00000   -999.00000   -999.00000
   1116.00000    -35.22650      3.22900      2.69810      2.51590    145.53790     64.36460   -999.00000   -999.00000   -999.00000   -999.00000   -999.00000
   1116.50000    -35.97680      3.20480      2.80290      2.59720    141.88040     63.09960   -999.00000   -999.00000   -999.00000   -999.00000   -999.00000
   1117.00000    -36.29130      3.18080      2.91170      2.69630    140.72791     61.52850   -999.00000   -999.00000   -999.00000   -999.00000   -999.00000
   1117.50000    -36.24110      3.30010      3.02530      2.81920    141.83099     58.93130   -999.00000   -999.00000   -999.00000   -999.00000   -999.00000
