~VERSION INFORMATION
 VERS.                           2.00:        CWLS LOG ASCII STANDARD - VERSION 2.00
 WRAP.                             NO:        ONE LINE PER DEPTH STEP
~WELL INFORMATION
#MNEM.UNIT                   DATA             INFORMATION
#----------             --------------        ------------------------------
 STRT.F                       98.0000:        START DEPTH
 STOP.F                     7393.0000:        STOP DEPTH
 STEP.F                        0.5000:        STEP VALUE
 NULL.                      -999.2500:        NULL VALUE
 COMP.     HUKSY OIL COMPANY OPERATOR:        COMPANY  
 LOC .                    3  13N   2W:        LOCATION   
 DATE.                         3/2/78:        LOG DATE 
 WELL.     NORTH KALIKPIK TEST WELL 1:        WELL     
 UWI .                   501032001100:        UNIQUE WELL ID 
 API .                   501032001100:        UNIQUE WELL IDENTIFIER 
 FLD .                        WILDCAT:        FIELD    
 CNTY.                    NORTH SLOPE:        COUNTY  
 STAT.                         ALASKA:        STATE   
 CTRY.                            USA:        COUNTRY 
 OPER.     HUKSY OIL COMPANY OPERATOR:        OPERATOR  
 SRVC.                   SCHLUMBERGER:        SERVICE COMPANY 
 LAT .                         0.0000:        LATITUDE
 LON .                         0.0000:        LONGITUDE
 DIGS.               CENTER LINE DATA:        DIGITIZING COMPANY 
~CURVE INFORMATION      
#MNEM        .UNIT         API CODE           CURVE DESCRIPTION
#-----------------      --------------        ------------------------------
 DEPT        .F                      :        1  DEPTH
 SP          .MV                     :        2  
 LL8         .OHMM                   :        3  
 ILD         .OHMM                   :        4  
 ILM         .OHMM                   :        5  
 DT          .US/F                   :        6  
 GR          .GAPI                   :        7  
 CALI        .IN                     :        8  
 DRHO        .G/C3                   :        9  
 RHOB        .G/C3                   :        10 
 NPHI        .%                      :        11 
 DPHI        .%                      :        12 
~PARAMETER INFORMATION       
~OTHER INFORMATION
~A 
# ...
   5937.50000    -34.96200      4.48580      3.46520      3.68260    105.27320    106.54520     16.26720      0.13190      2.37550     40.98810     17.54190
   5938.00000    -35.04700      4.43210      3.43520      3.65070    102.43380    110.09390     16.33300      0.14700      2.36980     41.05830     18.39210
   5938.50000    -35.09980      4.37720      3.40550      3.61910    100.61160    113.36750     16.19120      0.15520      2.36080     41.01260     17.13070
   5939.00000    -35.13390      4.32310      3.37610      3.58780     99.72260    113.94980     15.84230      0.14980      2.36360     41.27810     16.36740
   5939.50000    -35.16480      4.26950      3.37950      3.58790     99.65220    113.21780     15.75630      0.15100      2.37790     41.95080     16.41930
   5940.00000    -35.31000      4.22110      3.38440      3.59310    100.88520    112.51310     16.22020      0.16450      2.38810     42.24270     17.61820
   5940.50000    -35.42910      4.18820      3.38930      3.59830    102.11820    114.03110     16.29340      0.17380      2.37930     42.03210     18.85040
   5941.00000    -35.40040      4.19300      3.39420      3.60350    101.21040    115.47510     16.30890      0.16210      2.35040     42.10290     18.85310
   5941.50000    -35.29090      4.22810      3.39910      3.60870    100.16000    118.48040     16.25010      0.14690      2.34500     40.94300     19.02530
   5942.00000    -35.10210      4.25200      3.40400      3.61390     99.10950    120.18480     15.97750      0.13850      2.34490     38.75310     17.93970
   5942.50000    -34.94780      4.44780      3.40890      3.61920     98.16650    119.51930     16.14810      0.12910      2.34900     37.81100     18.20510
   5943.00000    -34.76440      4.55370      3.41380      3.62440     98.62330    118.59460     16.69850      0.14730      2.35710     38.30950     17.19700
   5943.50000    -34.56580      4.65450      3.42460      3.63710     99.08000    118.37870     16.29680      0.16080      2.35990     38.80800     16.35810
   5944.00000    -34.44900      4.73460      3.44210      3.65570     99.53670    116.87960     15.88490      0.14170      2.37790     39.01970     16.63260
   5944.50000    -34.30050      4.70730      3.45970      3.67440     99.77630    114.00230     15.51530      0.15290      2.38720     38.88060     15.41980
   5945.00000    -34.30700      4.68020      3.47740      3.69320     98.90950    112.34060     15.48100      0.13130      2.38740     38.56160     14.00140
   5945.50000    -34.48930      4.65330      3.49520      3.71210     97.86410    112.15750     15.48300      0.11680      2.41390     38.11580     13.25220
   5946.00000    -34.66950      4.62650      3.51050      3.72760     96.65660    113.62840     15.16310      0.11000      2.43300     37.32070     14.00050
   5946.50000    -34.81750      4.60020      3.52290      3.74080     95.72170    115.71640     14.93050      0.10470      2.42910     36.37550     13.49510
   5947.00000    -35.10180      4.70430      3.53530      3.75400     95.13230    117.61190     15.07880      0.09380      2.42530     35.52220     12.36250
   5947.50000    -35.39630      4.79160      3.54780      3.76720     94.54290    118.36860     15.41880      0.07100      2.43750     34.86270     10.79310
   5948.00000    -35.34150      4.83730      3.58640      3.82850     94.07490    118.51110     15.55530      0.05560      2.45860     34.72890      9.20670
   5948.50000    -35.20860      4.88350      3.65970      3.90670     93.92640    118.86920     15.65470      0.06520      2.49170     34.59830      9.03330
   5949.00000    -35.25130      4.87340      3.73440      3.98650     93.82700    118.36980     15.92360      0.07680      2.50330     34.46780      8.41890
   5949.50000    -35.48990      4.88210      3.81070      4.06790     94.48530    116.48500     16.00910      0.08660      2.51240     34.33720      9.44360
   5950.00000    -35.44150      4.90040      3.88850      4.15100     95.26910    116.51450     15.52860      0.07420      2.50830     34.20670      9.96360
   5950.50000    -35.32340      4.97340      3.96790      4.23580     96.05280    116.54060     15.31750      0.05750      2.49710     34.32210      9.22930
   5951.00000    -35.23710      5.04750      4.03480      4.29020     95.10830    115.54940     15.10630      0.05560      2.49980     34.77460      9.51040
   5951.50000    -35.05070      5.12270      4.07720      4.33520     93.97450    113.34860     15.28580      0.06980      2.50430     35.22700     10.81770
   5952.00000    -34.90760      5.19900      4.12010      4.38080     92.22320    108.81630     15.52170      0.08050      2.49320     35.67950     10.88770
   5952.50000    -34.83060      5.24120      4.16340      4.42670     90.37470    104.94970     15.02900      0.07180      2.47510     35.20990      8.51730
   5953.00000    -34.69310      5.28100      4.20710      4.47320     90.26980    104.62150     15.03980      0.06490      2.48580     34.24740      7.99490
   5953.50000    -34.55300      5.32110      4.25140      4.52020     90.40650    104.20050     15.68500      0.07730      2.51940     33.37110      8.23220
   5954.00000    -34.78510      5.36790      4.29600      4.56760     91.46670    102.99130     15.69560      0.04800      2.52230     33.08750      7.13050
   5954.50000    -35.09570      5.41550      4.33690      4.60690     92.88510    101.35170     15.45060      0.03390      2.52240     33.37980      4.73390
   5955.00000    -35.09100      5.46800      4.36570      4.63750     94.54880    100.09630     15.43650      0.05370      2.55250     34.02880      5.85760
   5955.50000    -34.98280      5.56010      4.39470      4.66830     93.65230     99.46450     15.23260      0.10020      2.57320     34.92550      7.38880
   5956.00000    -35.11450      5.69300      4.42390      4.69930     92.63730     98.11530     14.93130      0.10580      2.54680     35.46170      8.66210
   5956.50000    -35.37010      5.82910      4.45330      4.73050     91.62230     97.23660     14.62990      0.09700      2.52950     35.53140      9.77620
   5957.00000    -35.50750      5.83510      4.48280      4.76100     90.60730     97.37090     14.53110      0.06020      2.50200     34.18620      8.31580
   5957.50000    -35.42200      5.75540      4.50190      4.78040     90.87110     99.61650     14.88760      0.04660      2.50310     32.65560      6.93030
   5958.00000    -35.49890      5.67680      4.52030      4.79990     90.97080    102.26470     15.31790      0.05460      2.52690     32.17170      4.64900
   5958.50000    -35.66610      5.56930      4.53870      4.81950     90.39340    103.60240     15.38550      0.07710      2.55690     31.58040      6.06510
   5959.00000    -35.77320      5.46290      4.55720      4.83920     89.81600    103.35130     15.01090      0.09750      2.57250     30.71590      7.43440
   5959.50000    -35.78340      5.39450      4.57580      4.85890     90.64820    102.07090     15.20650      0.08020      2.54460     30.09060      7.74580
   5960.00000    -35.50580      5.46350      4.59450      4.87880     92.46080    100.41150     14.85160      0.08930      2.52770     30.89180      9.82480
   5960.50000    -35.19200      5.53340      4.61320      4.89870     91.83130     98.72110     14.55530      0.07720      2.50900     31.74140      8.68180
   5961.00000    -35.09990      5.61340      4.62960      4.91540     91.02680     98.27430     14.75160      0.07260      2.50060     32.73660      8.44950
   5961.50000    -35.03840      5.70350      4.64060      4.92710     89.52360     99.31360     14.66130      0.10090      2.50860     33.52870      8.95150
   5962.00000    -34.93270      5.79510      4.65170      4.93880     90.83980    100.47620     14.82190      0.11580      2.51320     34.08040      8.35820
   5962.50000    -34.80260      5.87760      4.66270      4.95050     93.04730    100.83110     15.14680      0.09610      2.50890     33.10150      5.30290
