~VERSION INFORMATION
 VERS.                           2.00:        CWLS LOG ASCII STANDARD - VERSION 2.00
 WRAP.                             NO:        ONE LINE PER DEPTH STEP
~WELL INFORMATION
#MNEM.UNIT                   DATA             INFORMATION
#----------             --------------        ------------------------------
 STRT.F                       98.0000:        START DEPTH
 STOP.F                     7393.0000:        STOP DEPTH
 STEP.F                        0.5000:        STEP VALUE
 NULL.                      -999.2500:        NULL VALUE
 COMP.     HUKSY OIL COMPANY OPERATOR:        COMPANY  
 LOC .                    3  13N   2W:        LOCATION   
 DATE.                         3/2/78:        LOG DATE 
 WELL.     NORTH KALIKPIK TEST WELL 1:        WELL     
 UWI .                   501032001100:        UNIQUE WELL ID 
 API .                   501032001100:        UNIQUE WELL IDENTIFIER 
 FLD .                        WILDCAT:        FIELD    
 CNTY.                    NORTH SLOPE:        COUNTY  
 STAT.                         ALASKA:        STATE   
 CTRY.                            USA:        COUNTRY 
 OPER.     HUKSY OIL COMPANY OPERATOR:        OPERATOR  
 SRVC.                   SCHLUMBERGER:        SERVICE COMPANY 
 LAT .                         0.0000:        LATITUDE
 LON .                         0.0000:        LONGITUDE
 DIGS.               CENTER LINE DATA:        DIGITIZING COMPANY 
~CURVE INFORMATION      
#MNEM        .UNIT         API CODE           CURVE DESCRIPTION
#-----------------      --------------        ------------------------------
 DEPT        .F                      :        1  DEPTH
 SP          .MV                     :        2  
 LL8         .OHMM                   :        3  
 ILD         .OHMM                   :        4  
 ILM         .OHMM                   :        5  
 DT          .US/F                   :        6  
 GR          .GAPI                   :        7  
 CALI        .IN                     :        8  
 DRHO        .G/C3                   :        9  
 RHOB        .G/C3                   :        10 
 NPHI        .%                      :        11 
 DPHI        .%                      :        12 
~PARAMETER INFORMATION       
~OTHER INFORMATION
~A 
# ...
   3999.50000    -51.09500      3.85280      3.08420      3.20530    122.54380     88.60270     19.04940      0.08650      2.29770     48.25160     22.01570
   4000.00000    -51.12480      3.85340      3.08500      3.20610    123.20840     88.54360     19.03580      0.07740      2.29670     47.77260     21.16500
   4000.50000    -50.95870      3.85220      3.08580      3.20700    121.52850     88.56500     19.02100      0.08350      2.29690     48.77690     22.09300
   4001.00000    -50.54050      3.85110      3.08660      3.20780    119.78270     88.65380     19.00620      0.09240      2.29830     50.39120     22.51680
   4001.50000    -50.11210      3.85000      3.08740      3.20860    118.03690     87.71740     18.98450      0.08960      2.28790     51.90860     22.98270
   4002.00000    -49.68380      3.84890      3.08820      3.20940    116.79460     86.43660     18.96420      0.08260      2.28120     51.47730     23.11420
   4002.50000    -49.88950      3.84780      3.08890      3.21030    116.49200     85.75060     18.95760      0.07350      2.27230     51.04600     22.54800
   4003.00000    -50.25300      3.84670      3.08970      3.21110    118.29560     85.10930     18.95090      0.06880      2.27490     50.61460     22.32450
   4003.50000    -50.61640      3.84550      3.09050      3.21190    120.31980     83.86230     18.94200      0.07480      2.28270     50.60280     22.21380
   4004.00000    -50.98710      3.84440      3.09130      3.21270    121.71720     83.28090     18.93100      0.07430      2.28670     50.87100     21.55310
   4004.50000    -51.24570      3.84330      3.09210      3.21360    123.27700     85.01280     18.92000      0.07070      2.28980     51.13970     21.05470
   4005.00000    -51.60770      3.84220      3.08840      3.20980    123.58850     87.58850     18.93500      0.06360      2.30110     51.41620     21.75130
   4005.50000    -51.75550      3.84110      3.08460      3.20580    121.71170     89.92750     18.98520      0.05830      2.30290     51.69270     22.52310
   4006.00000    -51.74750      3.84000      3.08080      3.20190    119.31560     91.41390     19.03530      0.05420      2.28940     51.67620     23.04350
   4006.50000    -51.60340      3.83880      3.07710      3.19790    117.87810     90.52690     19.08550      0.05110      2.27800     51.22120     23.93620
   4007.00000    -51.59200      3.83770      3.07330      3.19400    117.41350     89.24160     19.10740      0.05210      2.27230     50.35390     24.93880
   4007.50000    -51.65620      3.83660      3.06950      3.19010    118.32430     88.78910     19.12230      0.05220      2.25530     50.27030     25.44100
   4008.00000    -51.66400      3.83550      3.06570      3.18620    120.38320     89.21500     19.12280      0.04400      2.23910     50.44560     25.46570
   4008.50000    -51.57530      3.83440      3.06200      3.18230    123.22600     88.13500     19.12020      0.04660      2.23330     49.29580     25.04450
   4009.00000    -51.42010      3.83330      3.05820      3.17840    124.79220     86.35880     19.11620      0.05380      2.23570     47.83730     24.79450
   4009.50000    -51.35300      3.83220      3.05450      3.17450    125.42670     85.03240     19.09260      0.06410      2.24200     48.60510     24.75460
   4010.00000    -51.36150      3.83110      3.05070      3.17060    123.73770     84.64060     19.03460      0.06730      2.24570     48.78330     24.31310
   4010.50000    -51.27010      3.82990      3.04700      3.16670    120.69080     85.24130     18.95720      0.06920      2.24980     47.68280     24.17520
   4011.00000    -51.11690      3.82880      3.04320      3.16280    118.29180     85.69050     18.85080      0.07770      2.25460     46.51260     24.06200
   4011.50000    -51.07180      3.82770      3.03950      3.15890    117.33220     85.38120     18.79980      0.06110      2.25430     46.20340     23.54590
   4012.00000    -51.01170      3.82660      3.03580      3.15500    119.26210     85.37090     18.79250      0.06600      2.26180     47.35270     23.17550
   4012.50000    -50.91940      3.82510      3.03200      3.15120    121.90170     84.95230     18.78870      0.07260      2.26820     48.92560     22.07160
   4013.00000    -50.82710      3.82220      3.02830      3.14730    120.90340     83.28260     18.78860      0.08130      2.27590     50.38630     21.17920
   4013.50000    -50.73480      3.81930      3.03720      3.15740    118.37530     83.25450     18.80350      0.09810      2.29820     50.95260     20.74530
   4014.00000    -50.64250      3.81640      3.05400      3.17470    114.47970     84.17800     18.80670      0.10690      2.31160     50.80660     20.88590
   4014.50000    -50.55020      3.81350      3.07080      3.19220    112.88630     84.28360     18.81740      0.09890      2.30910     49.53390     21.24950
   4015.00000    -50.45790      3.81060      3.08770      3.20980    112.66900     83.18010     18.83570      0.10590      2.30550     48.89190     21.37590
   4015.50000    -50.36560      3.80770      3.10470      3.22750    113.61280     82.02180     18.84840      0.10020      2.30290     49.84020     21.06910
   4016.00000    -50.27330      3.80480      3.12180      3.24520    117.71940     82.10080     18.86900      0.09900      2.30750     51.25910     20.21440
   4016.50000    -50.22880      3.80190      3.13900      3.26310    120.69110     83.77280     18.92300      0.10470      2.32010     52.70330     19.98740
   4017.00000    -50.21140      3.79900      3.15630      3.28110    120.38990     85.44640     18.95440      0.09890      2.32530     52.37670     20.07080
   4017.50000    -50.19390      3.79610      3.17370      3.29910    118.83810     86.25780     18.98570      0.08210      2.32430     51.29370     20.25950
   4018.00000    -50.17650      3.79320      3.19110      3.31730    117.28630     87.35260     19.01700      0.08630      2.32170     51.63980     20.19390
   4018.50000    -50.15910      3.79040      3.20020      3.32630    117.50090     88.09520     19.03800      0.09310      2.32290     52.20220     20.15990
   4019.00000    -50.14170      3.78750      3.18920      3.31480    118.10760     87.81260     19.04750      0.09740      2.32290     52.51600     19.58710
   4019.50000    -50.12430      3.78460      3.17820      3.30330    118.58150     87.46220     19.05710      0.10030      2.32500     51.75300     20.37210
   4020.00000    -50.11040      3.78170      3.16720      3.29190    118.96550     87.35370     19.06660      0.09590      2.32800     50.45180     21.39560
   4020.50000    -50.11040      3.77890      3.15620      3.28050    119.10120     85.81190     19.07610      0.08010      2.30950     49.11780     22.64380
   4021.00000    -50.11040      3.77600      3.14530      3.26920    117.55180     84.35660     19.09920      0.07870      2.29480     49.08440     23.32890
   4021.50000    -50.11040      3.77310      3.13440      3.25790    116.00230     84.93350     19.12810      0.06850      2.27620     49.92490     22.75060
   4022.00000    -50.11040      3.77030      3.12360      3.24660    117.57680     87.16590     19.12520      0.07750      2.27250     50.69990     22.16870
   4022.50000    -50.11040      3.76740      3.11280      3.23540    119.83100     88.50180     19.09380      0.09470      2.28300     52.42730     22.01050
   4023.00000    -50.11040      3.76450      3.10200      3.22420    121.67630     88.06220     19.05350      0.10610      2.29360     53.23040     22.20870
   4023.50000    -50.11040      3.76170      3.09130      3.21300    122.86080     85.75520     19.01160      0.09610      2.28850     52.81580     22.02820
   4024.00000    -50.16210      3.75880      3.08060      3.20190    120.26380     85.99030     18.98440      0.08870      2.28990     51.53910     21.74880
   4024.50000    -50.24550      3.75600      3.07000      3.19090    115.70160     86.36860     18.95720      0.08260      2.29310     50.55450     20.86570
