~VERSION INFORMATION
 VERS.                           2.00:        CWLS LOG ASCII STANDARD - VERSION 2.00
 WRAP.                             NO:        ONE LINE PER DEPTH STEP
~WELL INFORMATION
#MNEM.UNIT                   DATA             INFORMATION
#----------             --------------        ------------------------------
 STRT.F                       98.0000:        START DEPTH
 STOP.F                     7393.0000:        STOP DEPTH
 STEP.F                        0.5000:        STEP VALUE
 NULL.                      -999.2500:        NULL VALUE
 COMP.     HUKSY OIL COMPANY OPERATOR:        COMPANY  
 LOC .                    3  13N   2W:        LOCATION   
 DATE.                         3/2/78:        LOG DATE 
 WELL.     NORTH KALIKPIK TEST WELL 1:        WELL     
 UWI .                   501032001100:        UNIQUE WELL ID 
 API .                   501032001100:        UNIQUE WELL IDENTIFIER 
 FLD .                        WILDCAT:        FIELD    
 CNTY.                    NORTH SLOPE:        COUNTY  
 STAT.                         ALASKA:        STATE   
 CTRY.                            USA:        COUNTRY 
 OPER.     HUKSY OIL COMPANY OPERATOR:        OPERATOR  
 SRVC.                   SCHLUMBERGER:        SERVICE COMPANY 
 LAT .                         0.0000:        LATITUDE
 LON .                         0.0000:        LONGITUDE
 DIGS.               CENTER LINE DATA:        DIGITIZING COMPANY 
~CURVE INFORMATION      
#MNEM        .UNIT         API CODE           CURVE DESCRIPTION
#-----------------      --------------        ------------------------------
 DEPT        .F                      :        1  DEPTH
 SP          .MV                     :        2  
 LL8         .OHMM                   :        3  
 ILD         .OHMM                   :        4  
 ILM         .OHMM                   :        5  
 DT          .US/F                   :        6  
 GR          .GAPI                   :        7  
 CALI        .IN                     :        8  
 DRHO        .G/C3                   :        9  
 RHOB        .G/C3                   :        10 
 NPHI        .%                      :        11 
 DPHI        .%                      :        12 
~PARAMETER INFORMATION       
~OTHER INFORMATION
~A 
# ...
   4968.50000    -43.67910      3.82390      3.34270      3.51620    116.26610     81.37010     15.62460      0.04460      2.33930     47.56550     17.89950
   4969.00000    -43.72400      3.86410      3.37490      3.68110    113.67460     81.43300     17.11810      0.05490      2.34690     46.08610     15.87540
   4969.50000    -43.85210      3.96730      3.56660      3.78070    110.84950     81.55730     18.61670      0.07570      2.38130     44.64130     15.75400
   4970.00000    -44.20110      4.07440      3.66320      3.88310    108.03900     81.34710     19.39000      0.08520      2.39800     43.78620     16.08390
   4970.50000    -44.47240      4.18440      3.76250      3.98830    109.44950     80.31350     19.02420      0.05940      2.39330     43.09250     16.19650
   4971.00000    -44.43970      4.29740      3.86440      4.09630    112.38280     79.03040     18.25290      0.04610      2.38920     42.15430     16.06480
   4971.50000    -44.28460      4.41340      3.96910      4.20720    115.45080     79.01510     18.22340      0.04630      2.38810     41.42460     16.03410
   4972.00000    -44.24060      4.53250      4.03620      4.24850    119.46730     80.94540     18.95910      0.06160      2.39070     41.54790     15.55320
   4972.50000    -44.27050      4.62240      4.00490      4.21560    124.77910     83.85550     17.82520      0.07170      2.39470     42.02970     15.22230
   4973.00000    -44.29440      4.36430      3.97390      4.18290    125.82490     86.05680     18.51060      0.05390      2.40340     42.79990     15.38630
   4973.50000    -44.32260      4.12060      3.91580      4.15050    126.87080     87.30470     17.93880      0.04270      2.40260     44.15890     16.15170
   4974.00000    -44.47590      3.92470      3.81260      4.04140    125.08230     85.03490     17.62020      0.04810      2.39760     45.20990     17.35710
   4974.50000    -44.78520      3.85500      3.71210      3.93490    123.56390     82.65090     17.55050      0.05320      2.38240     45.23040     19.16530
   4975.00000    -45.10430      3.81150      3.61420      3.83120    124.11470     80.54930     17.92730      0.05590      2.35740     45.25080     19.23920
   4975.50000    -45.32830      3.78310      3.51900      3.73020    124.85250     79.21850     18.68070      0.04360      2.33490     45.17220     18.49160
   4976.00000    -45.42640      3.74740      3.49470      3.67980    127.28210     78.67860     19.16950      0.07100      2.34230     46.09500     18.46900
   4976.50000    -45.43440      3.71320      3.52720      3.71400    127.53280     80.80190     19.54590      0.09590      2.35150     46.71140     17.92540
   4977.00000    -45.45410      3.77930      3.56000      3.74860    125.10300     81.80750     19.59950      0.10750      2.35510     48.24150     18.08970
   4977.50000    -45.48700      3.79620      3.59310      3.78350    122.85370     81.48730     19.57830      0.11900      2.36150     49.53230     19.67650
   4978.00000    -45.40890      3.91550      3.64390      3.85760    119.80240     80.57180     19.59260      0.12250      2.34230     50.00690     21.43400
   4978.50000    -45.34960      4.02910      3.73220      3.95110    118.01540     80.53410     19.34010      0.07970      2.31210     48.79460     20.66180
   4979.00000    -45.32540      4.14580      3.82270      4.04690    116.02240     81.21970     18.87470      0.05760      2.30670     47.30370     19.95040
   4979.50000    -45.26620      4.26590      3.91530      4.14500    115.18470     82.80240     18.40930      0.06500      2.31670     46.18030     19.01710
   4980.00000    -45.19700      4.38940      4.01020      4.22550    119.05160     85.90500     17.53580      0.07280      2.33010     45.32220     18.09680
   4980.50000    -45.08340      4.51660      3.97270      4.18390    124.68930     87.90600     16.80450      0.07090      2.34450     45.20270     15.73870
   4981.00000    -44.86990      4.43010      3.90850      4.14270    126.74680     86.19700     16.44870      0.05500      2.36760     46.00500     15.21400
   4981.50000    -44.71670      4.20590      3.77680      4.02270    128.83090     85.23300     16.38860      0.06480      2.40030     46.20160     15.69740
   4982.00000    -44.72250      3.99300      3.64950      3.88720    126.59560     84.47380     17.55900      0.06910      2.40310     43.99310     16.26270
   4982.50000    -44.67360      3.79090      3.52660      3.75620    119.71280     82.51570     19.00370      0.07650      2.39490     43.07660     16.90860
   4983.00000    -44.39880      3.76180      3.40780      3.62960    115.54480     79.43740     19.13730      0.07230      2.38380     42.74010     16.63990
   4983.50000    -44.16350      3.81700      3.50160      3.71780    110.30450     77.44720     19.50710      0.06510      2.37650     42.80710     16.70560
   4984.00000    -44.01670      3.87300      3.59300      3.79720    108.32300     78.46040     19.52330      0.07620      2.38010     42.82090     17.19170
   4984.50000    -44.01610      3.95340      3.66770      3.87610    111.28970     80.37220     19.53060      0.07570      2.37710     41.82620     16.59730
   4985.00000    -44.21830      4.07860      3.74390      3.95670    115.28190     81.40340     19.53000      0.06760      2.37540     41.68320     15.59330
   4985.50000    -44.45520      4.20780      3.82170      4.03890    117.83230     82.57300     19.52570      0.06900      2.38160     42.28440     14.15850
   4986.00000    -44.61350      4.34120      3.90110      4.12290    115.46870     83.99360     19.55730      0.08170      2.40110     43.19570     14.64790
   4986.50000    -44.64480      4.36580      3.98220      4.20860    112.29520     84.85100     19.43520      0.09670      2.42230     44.22500     14.73420
   4987.00000    -44.68620      4.39000      4.03940      4.25220    109.42510     84.30560     18.25960      0.07570      2.40760     45.12370     14.05570
   4987.50000    -44.76330      4.44970      4.07220      4.28660    108.47690     83.36520     17.04300      0.05430      2.41630     46.06790     13.71670
   4988.00000    -44.86890      4.55800      4.10520      4.32140    108.48260     82.43470     16.21210      0.05270      2.42310     46.10060     14.30020
   4988.50000    -45.01430      4.66890      4.13850      4.35640    111.00720     83.08540     15.58790      0.05430      2.42580     46.18600     13.70540
   4989.00000    -45.11150      4.78260      4.17200      4.39170    112.95630     83.32120     15.41360      0.04760      2.42290     46.62840     12.22170
   4989.50000    -44.97730      4.87740      4.20580      4.42730    116.41630     84.25380     15.46250      0.04980      2.43220     46.31790     12.09410
   4990.00000    -44.74720      4.74550      4.17970      4.40000    118.65470     87.05690     15.66440      0.06610      2.45290     45.93040     12.56800
   4990.50000    -44.49720      4.61710      4.14620      4.36470    116.83760     87.52220     15.85980      0.05560      2.45240     45.55790     13.06390
   4991.00000    -44.26920      4.49220      4.14160      4.36210    111.82770     88.12370     15.85590      0.06100      2.44930     44.86940     12.70060
   4991.50000    -44.08040      4.53760      4.18490      4.40770    107.72640     87.52720     15.80770      0.05200      2.43760     44.26750     11.67910
   4992.00000    -43.83480      4.58920      4.22860      4.45370    101.54130     83.67750     15.71030      0.06490      2.45040     44.13790     11.98720
   4992.50000    -43.57900      4.66610      4.27270      4.50020     97.92960     81.16580     15.61280      0.09180      2.46440     44.19830     13.11990
   4993.00000    -43.42160      4.76850      4.31730      4.60210     95.30390     79.59730     15.62620      0.08330      2.45260     43.50270     13.44750
   4993.50000    -43.20290      4.87780      4.48280      4.80260     92.21080     79.13000     16.02670      0.06550      2.43700     42.70960     14.95020
