~VERSION INFORMATION
 VERS.                           2.00:        CWLS LOG ASCII STANDARD - VERSION 2.00
 WRAP.                             NO:        ONE LINE PER DEPTH STEP
~WELL INFORMATION
#MNEM.UNIT                   DATA             INFORMATION
#----------             --------------        ------------------------------
 STRT.F                       98.0000:        START DEPTH
 STOP.F                     7393.0000:        STOP DEPTH
 STEP.F                        0.5000:        STEP VALUE
 NULL.                      -999.2500:        NULL VALUE
 COMP.     HUKSY OIL COMPANY OPERATOR:        COMPANY  
 LOC .                    3  13N   2W:        LOCATION   
 DATE.                         3/2/78:        LOG DATE 
 WELL.     NORTH KALIKPIK TEST WELL 1:        WELL     
 UWI .                   501032001100:        UNIQUE WELL ID 
 API .                   501032001100:        UNIQUE WELL IDENTIFIER 
 FLD .                        WILDCAT:        FIELD    
 CNTY.                    NORTH SLOPE:        COUNTY  
 STAT.                         ALASKA:        STATE   
 CTRY.                            USA:        COUNTRY 
 OPER.     HUKSY OIL COMPANY OPERATOR:        OPERATOR  
 SRVC.                   SCHLUMBERGER:        SERVICE COMPANY 
 LAT .                         0.0000:        LATITUDE
 LON .                         0.0000:        LONGITUDE
 DIGS.               CENTER LINE DATA:        DIGITIZING COMPANY 
~CURVE INFORMATION      
#MNEM        .UNIT         API CODE           CURVE DESCRIPTION
#-----------------      --------------        ------------------------------
 DEPT        .F                      :        1  DEPTH
 SP          .MV                     :        2  
 LL8         .OHMM                   :        3  
 ILD         .OHMM                   :        4  
 ILM         .OHMM                   :        5  
 DT          .US/F                   :        6  
 GR          .GAPI                   :        7  
 CALI        .IN                     :        8  
 DRHO        .G/C3                   :        9  
 RHOB        .G/C3                   :        10 
 NPHI        .%                      :        11 
 DPHI        .%                      :        12 
~PARAMETER INFORMATION       
~OTHER INFORMATION
~A 
# ...
    123.50000    -56.74250      5.53370      3.77210      2.26860    197.53751     48.30350   -999.00000   -999.00000   -999.00000   -999.00000   -999.00000
    124.00000    -57.24270      5.43790      3.78660      2.26110    196.98120     50.30110   -999.00000   -999.00000   -999.00000   -999.00000   -999.00000
    124.50000    -57.84010      5.52420      3.80100      2.25900    195.28481     52.33660   -999.00000   -999.00000   -999.00000   -999.00000   -999.00000
    125.00000    -59.08030      5.68760      3.81550      2.27310    197.05830     53.59450   -999.00000   -999.00000   -999.00000   -999.00000   -999.00000
    125.50000    -60.18770      5.85420      3.84460      2.25730    194.76421     54.18790   -999.00000   -999.00000   -999.00000   -999.00000   -999.00000
    126.00000    -60.65990      5.90360      3.89470      2.27520    191.20760     55.28630   -999.00000   -999.00000   -999.00000   -999.00000   -999.00000
    126.50000    -60.78990      5.78960      3.94540      2.28640    192.00540     56.99660   -999.00000   -999.00000   -999.00000   -999.00000   -999.00000
    127.00000    -60.75090      5.56380      4.00140      2.28660    190.73790     58.02410   -999.00000   -999.00000   -999.00000   -999.00000   -999.00000
    127.50000    -60.55330      5.45130      4.06670      2.29390    191.75841     56.23770   -999.00000   -999.00000   -999.00000   -999.00000   -999.00000
    128.00000    -60.03670      5.35480      4.14650      2.31910    190.46690     57.45750   -999.00000   -999.00000   -999.00000   -999.00000   -999.00000
    128.50000    -59.58790      5.15620      4.20470      2.33850    189.73810     59.86710   -999.00000   -999.00000   -999.00000   -999.00000   -999.00000
    129.00000    -59.16850      4.84720      4.20270      2.34690    197.23151     58.57760   -999.00000   -999.00000   -999.00000   -999.00000   -999.00000
    129.50000    -58.73930      4.56530      4.20080      2.35130    196.00000     57.59870   -999.00000   -999.00000   -999.00000   -999.00000   -999.00000
    130.00000    -58.49270      4.58050      4.19480      2.36800    195.86363     56.47960   -999.00000   -999.00000   -999.00000   -999.00000   -999.00000
    130.50000    -58.47700      4.65090      4.08040      2.39240    195.72728     54.42990   -999.00000   -999.00000   -999.00000   -999.00000   -999.00000
    131.00000    -58.58160      4.74610      3.96900      2.39950    195.59091     50.61070   -999.00000   -999.00000   -999.00000   -999.00000   -999.00000
    131.50000    -58.98880      4.73070      3.86080      2.38510    195.45454     45.43540   -999.00000   -999.00000   -999.00000   -999.00000   -999.00000
    132.00000    -59.50900      4.55380      3.73910      2.35530    195.31818     41.13540   -999.00000   -999.00000   -999.00000   -999.00000   -999.00000
    132.50000    -59.74700      4.43880      3.66900      2.30300    195.18182     39.34020   -999.00000   -999.00000   -999.00000   -999.00000   -999.00000
    133.00000    -59.65250      4.36950      3.60020      2.26460    195.04546     39.04010   -999.00000   -999.00000   -999.00000   -999.00000   -999.00000
    133.50000    -59.96340      4.21800      3.53960      2.22820    194.90909     39.96670   -999.00000   -999.00000   -999.00000   -999.00000   -999.00000
    134.00000    -60.59530      4.05850      3.48690      2.20330    194.77274     42.87730   -999.00000   -999.00000   -999.00000   -999.00000   -999.00000
    134.50000    -60.74050      4.03500      3.37790      2.18660    194.63637     45.22680   -999.00000   -999.00000   -999.00000   -999.00000   -999.00000
    135.00000    -60.86030      4.10380      3.27730      2.17640    194.50000     48.84910   -999.00000   -999.00000   -999.00000   -999.00000   -999.00000
    135.50000    -61.15780      4.14890      3.24990      2.17350    197.26070     52.10090   -999.00000   -999.00000   -999.00000   -999.00000   -999.00000
    136.00000    -61.89060      4.23920      3.22280      2.14080    200.30499     56.08710   -999.00000   -999.00000   -999.00000   -999.00000   -999.00000
    136.50000    -62.44940      4.13610      3.19680      2.10210    200.69130     59.34530   -999.00000   -999.00000   -999.00000   -999.00000   -999.00000
    137.00000    -63.05660      4.03640      3.17110      2.05480    198.09750     60.49270   -999.00000   -999.00000   -999.00000   -999.00000   -999.00000
    137.50000    -63.58090      4.09510      3.14560      2.05670    194.80260     60.42140   -999.00000   -999.00000   -999.00000   -999.00000   -999.00000
    138.00000    -63.79910      4.32160      3.12030      2.06990    191.90379     59.82900   -999.00000   -999.00000   -999.00000   -999.00000   -999.00000
    138.50000    -63.43990      4.64260      3.09530      2.08320    189.57820     59.06430   -999.00000   -999.00000   -999.00000   -999.00000   -999.00000
    139.00000    -62.57550      4.67400      3.09210      2.09650    189.04530     57.67630   -999.00000   -999.00000   -999.00000   -999.00000   -999.00000
    139.50000    -61.86580      4.60340      3.15400      2.10990    189.59689     55.61280   -999.00000   -999.00000   -999.00000   -999.00000   -999.00000
    140.00000    -61.34060      4.57280      3.21710      2.12340    190.64020     53.75080   -999.00000   -999.00000   -999.00000   -999.00000   -999.00000
    140.50000    -60.81430      4.59150      3.28160      2.14120    192.33870     52.41650   -999.00000   -999.00000   -999.00000   -999.00000   -999.00000
    141.00000    -60.21960      4.64470      3.34980      2.18600    193.65250     52.23250   -999.00000   -999.00000   -999.00000   -999.00000   -999.00000
    141.50000    -59.57480      4.70910      3.38310      2.21460    194.39230     52.20100   -999.00000   -999.00000   -999.00000   -999.00000   -999.00000
    142.00000    -58.95610      4.73320      3.40110      2.24390    198.88440     54.04650   -999.00000   -999.00000   -999.00000   -999.00000   -999.00000
    142.50000    -58.75970      4.75650      3.42120      2.26700    200.41840     55.27840   -999.00000   -999.00000   -999.00000   -999.00000   -999.00000
    143.00000    -58.99400      4.77740      3.42930      2.27510    199.96620     53.20140   -999.00000   -999.00000   -999.00000   -999.00000   -999.00000
    143.50000    -59.28320      4.83290      3.45690      2.27950   -999.00000     48.88910   -999.00000   -999.00000   -999.00000   -999.00000   -999.00000
    144.00000    -59.47390      4.94050      3.47770      2.25080   -999.00000     46.40800   -999.00000   -999.00000   -999.00000   -999.00000   -999.00000
    144.50000    -59.92090      5.01690      3.50450      2.22710   -999.00000     44.13010   -999.00000   -999.00000   -999.00000   -999.00000   -999.00000
    145.00000    -60.33940      5.00250      3.53350      2.20330   -999.00000     39.75870   -999.00000   -999.00000   -999.00000   -999.00000   -999.00000
    145.50000    -60.55720      4.98820      3.56460      2.20950   -999.00000     37.78370   -999.00000   -999.00000   -999.00000   -999.00000   -999.00000
    146.00000    -60.52590      4.97390      3.59600      2.21150   -999.00000     36.54990   -999.00000   -999.00000   -999.00000   -999.00000   -999.00000
    146.50000    -60.45220      5.06390      3.62770      2.23340   -999.00000     36.55920   -999.00000   -999.00000   -999.00000   -999.00000   -999.00000
    147.00000    -60.37680      5.18140      3.68200      2.25940   -999.00000     38.00190   -999.00000   -999.00000   -999.00000   -999.00000   -999.00000
    147.50000    -60.30900      5.16470      3.76700      2.28580   -999.00000     40.27910   -999.00000   -999.00000   -999.00000   -999.00000   -999.00000
    148.00000    -60.22770      4.94060      3.92340      2.31250   -999.00000     43.42730   -999.00000   -999.00000   -999.00000   -999.00000   -999.00000
    148.50000    -60.06920      4.65110      4.01700      2.33950   -999.00000     45.61390   -999.00000   -999.00000   -999.00000   -999.00000   -999.00000
