~VERSION INFORMATION
 VERS.                           2.00:        CWLS LOG ASCII STANDARD - VERSION 2.00
 WRAP.                             NO:        ONE LINE PER DEPTH STEP
~WELL INFORMATION
#MNEM.UNIT                   DATA             INFORMATION
#----------             --------------        ------------------------------
 STRT.F                       98.0000:        START DEPTH
 STOP.F                     7393.0000:        STOP DEPTH
 STEP.F                        0.5000:        STEP VALUE
 NULL.                      -999.2500:        NULL VALUE
 COMP.     HUKSY OIL COMPANY OPERATOR:        COMPANY  
 LOC .                    3  13N   2W:        LOCATION   
 DATE.                         3/2/78:        LOG DATE 
 WELL.     NORTH KALIKPIK TEST WELL 1:        WELL     
 UWI .                   501032001100:        UNIQUE WELL ID 
 API .                   501032001100:        UNIQUE WELL IDENTIFIER 
 FLD .                        WILDCAT:        FIELD    
 CNTY.                    NORTH SLOPE:        COUNTY  
 STAT.                         ALASKA:        STATE   
 CTRY.                            USA:        COUNTRY 
 OPER.     HUKSY OIL COMPANY OPERATOR:        OPERATOR  
 SRVC.                   SCHLUMBERGER:        SERVICE COMPANY 
 LAT .                         0.0000:        LATITUDE
 LON .                         0.0000:        LONGITUDE
 DIGS.               CENTER LINE DATA:        DIGITIZING COMPANY 
~CURVE INFORMATION      
#MNEM        .UNIT         API CODE           CURVE DESCRIPTION
#-----------------      --------------        ------------------------------
 DEPT        .F                      :        1  DEPTH
 SP          .MV                     :        2  
 LL8         .OHMM                   :        3  
 ILD         .OHMM                   :        4  
 ILM         .OHMM                   :        5  
 DT          .US/F                   :        6  
 GR          .GAPI                   :        7  
 CALI        .IN                     :        8  
 DRHO        .G/C3                   :        9  
 RHOB        .G/C3                   :        10 
 NPHI        .%                      :        11 
 DPHI        .%                      :        12 
~PARAMETER INFORMATION       
~OTHER INFORMATION
~A 
# ...
   3056.00000    -35.68100      4.05400      3.61430      4.08320    104.82310     85.13170     14.12860      0.05590      2.33470     43.13220     18.71820
   3056.50000    -35.27960      4.30840      3.87270      4.33060    105.02150     81.39910     14.26920      0.03670      2.33680     42.47650     18.16660
   3057.00000    -34.99930      4.67000      4.06330      4.34880    109.86420     78.82980     14.49650      0.02970      2.34660     43.35630     17.20420
   3057.50000    -34.70290      5.06180      4.08030      4.36700    117.15010     76.27930     14.76520      0.03230      2.35650     44.60830     16.64870
   3058.00000    -34.27590      5.12440      4.06850      4.38100    123.03420     78.43550     14.70490      0.05920      2.37260     45.63180     17.52380
   3058.50000    -33.63800      4.79910      3.98620      4.29250    127.69650     80.33660     14.32120      0.08180      2.37690     46.54320     18.71940
   3059.00000    -33.30490      4.49450      3.90560      4.20580    128.20390     83.61800     14.26810      0.08450      2.36390     47.05460     19.91640
   3059.50000    -33.08150      4.23470      3.82670      4.12080    121.07720     85.02330     14.22150      0.08700      2.34640     46.18610     19.19300
   3060.00000    -32.93680      4.14240      3.74930      4.03750    112.71580     84.17410     14.17490      0.07580      2.33300     45.33240     17.96670
   3060.50000    -32.86760      4.11730      3.70000      3.96810    108.36330     82.46950     14.12760      0.08430      2.34520     43.87080     16.82440
   3061.00000    -33.11740      4.17320      3.71030      3.97530    105.84650     81.86350     14.07030      0.09340      2.36440     43.23160     16.70280
   3061.50000    -33.51620      4.48770      3.74620      4.01370    107.89840     82.58040     14.01300      0.09060      2.37840     43.70230     16.73360
   3062.00000    -33.77250      5.06290      3.78240      4.05250    116.99760     83.69080     14.02250      0.07150      2.38000     45.01730     17.80770
   3062.50000    -33.81960      4.99140      3.81890      4.09170    121.98410     85.74780     14.07150      0.06880      2.37050     46.12290     17.64960
   3063.00000    -33.55920      4.56900      3.77610      4.06110    123.94940     86.94880     14.12040      0.06670      2.35970     46.10360     18.02330
   3063.50000    -33.19540      4.28140      3.70860      3.98850    124.19160     87.45830     14.07940      0.08460      2.35990     45.33020     18.84030
   3064.00000    -33.21750      4.15870      3.64230      3.91720    121.53330     87.45420     13.97590      0.08530      2.35210     44.17420     20.42410
   3064.50000    -33.48730      4.06140      3.57510      3.84720    117.89910     87.02670     13.87230      0.07910      2.33650     42.90250     19.23890
   3065.00000    -33.87150      3.96640      3.50000      3.77120    115.39380     87.89810     13.81130      0.05970      2.32010     42.15830     19.28710
   3065.50000    -34.09140      4.04110      3.46790      3.72230    117.87280     89.75210     13.85760      0.06740      2.33350     42.57080     18.36390
   3066.00000    -33.93160      4.22170      3.51850      3.78070    120.75320     90.40750     13.90400      0.07810      2.34690     42.88310     17.91510
   3066.50000    -33.60690      4.29470      3.58910      3.87360    114.67730     89.63830     13.95040      0.09400      2.35860     43.16520     18.08360
   3067.00000    -33.46080      4.15530      3.67720      3.96870    112.91340     86.40230     13.96730      0.08270      2.35740     43.38530     17.75720
   3067.50000    -33.23130      4.05990      3.76760      4.06620    115.41300     85.51380     13.95480      0.07530      2.36060     44.15940     17.40330
   3068.00000    -32.98330      4.24110      3.85550      4.13140    113.24640     85.97610     13.94230      0.07440      2.36370     44.61730     18.81910
   3068.50000    -32.89680      4.43040      3.81900      4.09220    115.03220     86.72970     13.93330      0.06550      2.36070     45.14410     19.71680
   3069.00000    -32.85500      4.62810      3.78280      4.05320    118.92460     87.76990     13.93170      0.04880      2.33770     45.87390     19.66290
   3069.50000    -32.60330      4.52910      3.74690      4.01470    121.23320     88.38200     13.93010      0.05010      2.33350     46.68310     20.43380
   3070.00000    -32.43590      4.35950      3.71140      3.97650    124.84430     88.95810     13.92850      0.06490      2.32780     47.36090     19.79800
   3070.50000    -32.42440      4.19900      3.59930      3.90650    129.94630     89.30010     13.92690      0.05640      2.31890     48.06120     19.77870
   3071.00000    -32.53730      4.05460      3.48790      3.78560    129.29060     89.04750     13.92920      0.07960      2.32770     47.28080     20.25540
   3071.50000    -32.53730      3.92740      3.38000      3.66850    124.65860     88.12510     13.93430      0.09770      2.32570     46.61740     20.73560
   3072.00000    -32.55000      3.88700      3.27540      3.55500    118.31520     90.45910     13.93930      0.08270      2.31630     46.32000     21.92630
   3072.50000    -32.58710      3.84700      3.18190      3.44500    116.42900     93.04430     13.94820      0.06270      2.30180     46.01440     22.18390
   3073.00000    -32.78740      3.89540      3.16470      3.38770    121.36030     93.47710     13.95990      0.04240      2.28850     45.52570     21.23970
   3073.50000    -33.15070      3.99110      3.14770      3.36940    129.72951     93.26400     13.97170      0.04080      2.29310     45.97690     21.14350
   3074.00000    -33.40470      4.08920      3.13070      3.35120    138.24780     94.14680     13.86140      0.04990      2.30320     46.37730     20.41360
   3074.50000    -33.67420      4.18960      3.11340      3.33290    140.24530     94.90510     13.70000      0.07290      2.31790     46.54470     22.07660
   3075.00000    -34.17690      3.93340      3.09570      3.31400    132.94591     94.17870     13.51620      0.08560      2.30320     45.98380     21.95360
   3075.50000    -34.83550      3.66380      3.07820      3.29520    123.72090     91.56560     13.34670      0.07290      2.29160     44.94400     21.17440
   3076.00000    -35.59740      3.57360      3.09540      3.33210    113.84910     89.66740     13.24530      0.06130      2.29980     43.44260     19.65270
   3076.50000    -36.46090      3.72890      3.15840      3.39980    109.37640     88.56250     13.30370      0.04890      2.31800     41.66480     18.10990
   3077.00000    -38.04590      4.14340      3.22270      3.46900    109.32020     88.37580     13.53620      0.02500      2.34160     40.46450     15.60470
   3077.50000    -39.91540      4.60390      3.28820      3.54350    110.41370     87.64660     13.67450      0.01350      2.37040     39.28860     14.60840
   3078.00000    -41.62330      5.02410      3.42290      3.62680    111.50720     86.37520     13.52030      0.02860      2.40680     38.80180     14.09550
   3078.50000    -42.87340      4.96900      3.58360      3.73550    107.95450     84.71790     13.30960      0.03870      2.41800     38.05690     14.02260
   3079.00000    -43.88380      4.91460      3.75190      3.98400    108.77290     83.17850     13.27350      0.04520      2.42260     37.06360     15.13730
   3079.50000    -45.18940      5.13190      3.92800      4.24890    106.76700     82.70770     13.23740      0.04800      2.41970     36.08830     15.83960
   3080.00000    -46.74930      5.41510      4.11250      4.53150    104.00600     81.55590     13.15230      0.02660      2.39770     35.42180     16.64910
   3080.50000    -47.83310      5.71390      4.21270      4.83290    101.51960     79.63360     13.09790      0.01740      2.38860     34.55740     17.71280
   3081.00000    -48.52970      6.03660      4.20750      5.15430     99.14240     78.51530     13.09590      0.01590      2.37120     34.74330     17.58790
